$IIRSA,0,A,,V*67
$IIMWV,021.0,R,18.0,N,A*07
$IIMWV,038.5,T,10.3,N,A*07
$IIVHW,007.5,T,006.5,M,9.29,N,17.20,K*62
$IIVPW,7.06,N,3.64,M*52
$IIVWR,021.0,R,18.0,N,9.3,M,33.3,K*4A
$IIVWT,040.5,R,9.8,N,5.1,M,18.1,K*73
!AIVDO,1,1,,,B3WgRq00Bh@dHFVKHjt6OwQ5wP06,0*07
$IIGGA,145102,4456.070,N,01435.217,E,1,08,1,1,M,43,M,,*44
$IIMWD,047.5,T,046.5,M,9.8,N,5.1,M*40
$IIVLW,17536.3,N,184.21,N*76
$IIVTG,010.0,T,009.0,M,7.6,N,14.1,K*64
!AIVDM,1,1,,A,13SdIG00ig12vsLIdm1UKrF400SN,0*2B
$IIAPB,A,A,,,N,,,,,1,303.5,M,,,A*27
$IIBWC,145103,,,,,304.5,T,303.5,M,57.60,N,1*1F
$IIDBT,234.9,f,71.62,M,39.15,F*11
!AIVDM,1,1,,A,D@2A`UR<`O6D,0*57
$IIGLL,4456.070,N,01435.217,E,145103,A,A*51
$IIHDG,005.0,,,1,E*38
$IIHDM,005.0,M*27
$IIHDT,006.0,T*24
$IIRMB,A,,,,1,,,,,57.60,304.5,,,A*6A
!AIVDO,1,1,,,B3WgRq00Bh@dHIVKHl<6SwQUwP06,0*3A
$IIRMC,145103,A,4456.072,N,01435.218,E,7.6,010.0,060710,1,E,A*1F
$IIRSA,0,A,,V*67
$IIMWV,023.5,R,16.9,N,A*07
!AIVDM,1,1,,B,13Sg0:4P0N129U<IgQQ;ugv405k<,0*47
$IIMWV,045.0,T,9.5,N,A*36
$IIVHW,006.0,T,005.0,M,8.67,N,16.06,K*6E
$IIVPW,6.13,N,3.16,M*52
$IIVWR,023.5,R,16.8,N,8.7,M,31.1,K*4E
$IIVWT,045.0,R,9.5,N,4.9,M,17.6,K*7F
!AIVDO,1,1,,,B3WgRq00Bh@dHKVKHmP5kwR5wP06,0*0D
$IIAPB,A,A,,,N,,,,,1,303.5,M,,,A*27
$IIBWC,145105,,,,,304.5,T,303.5,M,57.60,N,1*19
$IIDBT,234.4,f,71.46,M,39.06,F*18
$IIGLL,4456.074,N,01435.218,E,145105,A,A*5C
$IIHDG,004.5,,,1,E*3C
$IIHDM,004.5,M*23
$IIHDT,005.5,T*22
$IIRMB,A,,,,1,,,,,57.60,304.5,,,A*6A
$IIRMC,145105,A,4456.076,N,01435.219,E,7.6,009.0,060710,1,E,A*14
$IIRSA,0,A,,V*67
$IIMWV,022.5,R,16.6,N,A*09
!AIVDO,1,1,,,B3WgRq00Bh@dHMVKHnl53wRUwP06,0*0C
$IIMWV,050.5,T,9.4,N,A*36
$IIVHW,005.0,T,004.0,M,8.90,N,16.48,K*6E
$IIVPW,5.54,N,2.86,M*5A
$IIVWR,026.0,R,16.2,N,8.4,M,30.0,K*47
$IIVWT,050.5,R,9.2,N,4.7,M,17.0,K*71
!AIVDO,1,1,,,B3WgRq00C0@dHOVKHp45;wS5wP06,0*78
$IIGSA,,3,27,04,12,30,14,02,29,09,,,,,,1,*7F
$IIGSV,2,1,24,12,73,313,46,09,60,132,46,27,52,133,44,30,39,274,44*69
$IIGSV,2,2,24,14,31,305,41,04,23,075,43,02,22,119,44,29,12,209,41*61
$IIMTW,24.6,C*13
$IIZDA,145107,06,07,2010,,*5B
$IIHVM,1,E*27
$IIZTG,145107,073444,1*52
$IIGGA,145107,4456.080,N,01435.220,E,1,08,1,1,M,43,M,,*4A
$IIMWD,046.5,T,045.5,M,9.7,N,5.0,M*4C
!AIVDO,1,1,,,B3WgRq00Bh@dHQVKHqH4cwSUwP06,0*7B
$IIVLW,17536.3,N,184.24,N*73
$IIVTG,009.0,T,008.0,M,7.6,N,14.1,K*6D
$IIAPB,A,A,,,N,,,,,1,303.5,M,,,A*27
$IIBWC,145108,,,,,304.5,T,303.5,M,57.60,N,1*14
$IIDBT,231.8,f,70.67,M,38.63,F*11
$IIGLL,4456.080,N,01435.220,E,145108,A,A*51
$IIHDG,003.0,,,1,E*3E
$IIHDM,003.0,M*21
$IIHDT,004.0,T*26
$IIRMB,A,,,,1,,,,,57.60,304.5,,,A*6A
!AIVDO,1,1,,,B3WgRq00C0@dHSVKHrd3GwT5wP06,0*4B
!AIVDO,1,1,,B,B3WgRq00C0@dHSVKHrd3GwT5oP06,0*11
$IIRMC,145108,A,4456.083,N,01435.220,E,7.6,008.0,060710,1,E,A*18
$IIRSA,0,A,,V*67
$IIMWV,025.5,R,16.3,N,A*0B
$IIMWV,049.5,T,9.2,N,A*38
$IIVHW,004.0,T,003.0,M,8.84,N,16.37,K*65
$IIVPW,5.68,N,2.93,M*51
$IIVWR,025.5,R,16.3,N,8.4,M,30.2,K*42
$IIVWT,050.0,R,9.1,N,4.7,M,16.9,K*7F
$IIAPB,A,A,,,N,,,,,1,303.5,M,,,A*27
$IIBWC,145109,,,,,304.5,T,303.5,M,57.60,N,1*15
$IIDBT,223.0,f,67.99,M,37.16,F*10
!AIVDM,1,1,,B,4@2A`UQuak>k813d20IWT2700@5o,0*65
!AIVDM,1,1,,A,4@2A`PQuak>k910f5hIhc`700<1B,0*33
!AIVDO,1,1,,,B3WgRq00C0@dHTVKHt42kwTUwP06,0*57
$IIGLL,4456.085,N,01435.220,E,145110,A,A*5D
$IIHDG,003.0,,,1,E*3E
$IIHDM,003.0,M*21
$IIHDT,004.0,T*26
$IIRMB,A,,,,1,,,,,57.60,304.5,,,A*6A
$IIRMC,145110,A,4456.085,N,01435.220,E,7.6,008.0,060710,1,E,A*17
$IIRSA,1,A,,V*66
$IIMWV,023.5,R,16.2,N,A*0C
$IIMWV,045.5,T,9.0,N,A*36
$IIVHW,004.0,T,003.0,M,8.57,N,15.87,K*63
$IIVPW,6.01,N,3.10,M*57
$IIVWR,026.0,R,16.2,N,8.4,M,30.0,K*47
!AIVDO,1,1,,,B3WgRq00C0@dHUVKHuH3;wU5wP06,0*1B
$IIVWT,049.5,R,9.3,N,4.8,M,17.2,K*75
$IIAPB,A,A,,,N,,,,,1,303.5,M,,,A*27
$IIBWC,145111,,,,,304.5,T,303.5,M,57.60,N,1*1C
$IIDBT,223.0,f,67.99,M,37.16,F*10
$IIGLL,4456.087,N,01435.220,E,145111,A,A*5E
$IIHDG,003.0,,,1,E*3E
$IIHDM,003.0,M*21
$IIHDT,004.0,T*26
$IIRMB,A,,,,1,,,,,57.60,304.5,,,A*6A
$IIRMC,145111,A,4456.089,N,01435.221,E,7.6,007.0,060710,1,E,A*14
$IIRSA,1,A,,V*66
!AIVDO,1,1,,,B3WgRq00C0@dHVVKHvd37wUUwP06,0*5B
$IIMWV,026.0,R,15.8,N,A*05
$IIMWV,051.0,T,8.9,N,A*3E
$IIVHW,004.0,T,003.0,M,8.57,N,15.87,K*63
$IIVPW,5.43,N,2.80,M*5A
$IIVWR,026.0,R,15.8,N,8.1,M,29.3,K*40
$IIVWT,051.0,R,8.9,N,4.6,M,16.5,K*7A
$IIGGA,145112,4456.089,N,01435.221,E,1,08,1,2,M,43,M,,*45
$IIMWD,055.0,T,054.0,M,8.9,N,4.6,M*46
$IIVLW,17536.3,N,184.24,N*73
$IIVTG,007.0,T,006.0,M,7.6,N,14.1,K*6D
$IIAPB,A,A,,,N,,,,,1,303.5,M,,,A*27
!AIVDO,1,1,,,B3WgRq00C0@dHa6KI1D3kwVUwP06,0*35
$IIBWC,145113,,,,,304.5,T,303.5,M,57.60,N,1*1E
$IIDBT,215.9,f,65.82,M,35.98,F*10
$IIGLL,4456.091,N,01435.221,E,145113,A,A*5A
$IIHDG,002.5,,,1,E*3A
$IIHDM,002.5,M*25
$IIHDT,003.5,T*24
$IIRMB,A,,,,1,,,,,57.60,304.5,,,A*6A
!AIVDM,1,1,,A,13Sg0:4P0N129QtIgQdKiOvH0H8?,0*28
$IIRMC,145113,A,4456.093,N,01435.221,E,7.6,007.0,060710,1,E,A*1D
$IIRSA,1,A,,V*66
!AIVDO,1,1,,,B3WgRq00Bh@dHb6KI2`2wwW5wP06,0*34
$IIMWV,024.5,R,18.0,N,A*07
!AIVDM,1,1,,B,13SdIG0vAf12w5hIdl5UM:FJ0D07,0*7F
$IIMWV,048.5,T,8.8,N,A*32
$IIVHW,003.0,T,002.0,M,8.71,N,16.13,K*6F
$IIVPW,5.79,N,2.98,M*5A
$IIVWR,024.5,R,16.0,N,8.2,M,29.6,K*4A
$IIVWT,049.0,R,8.7,N,4.5,M,16.1,K*7A
$IIAPB,A,A,,,N,,,,,1,303.5,M,,,A*27
!AIVDO,1,1,,,B3WgRq00C0@dHcVKI3t2kwWUwP06,0*65
$IIBWC,145115,,,,,304.5,T,303.5,M,57.60,N,1*18
$IIDBT,213.9,f,65.21,M,35.65,F*1D
$IIGLL,4456.095,N,01435.222,E,145115,A,A*5B
$IIHDG,002.5,,,1,E*3A
$IIHDM,002.5,M*25
$IIHDT,003.5,T*24
$IIRMB,A,,,,1,,,,,57.60,304.5,,,A*6A
$IIRMC,145115,A,4456.097,N,01435.222,E,7.6,006.0,060710,1,E,A*1D
$IIRSA,1,A,,V*66
$IIMWV,025.5,R,15.2,N,A*09
$IIMWV,054.0,T,8.0,N,A*32
!AIVDO,1,1,,,B3WgRq00C0@dHdVKI5D2Kw`5wP06,0*23
$IIVHW,003.0,T,002.0,M,8.96,N,16.59,K*68
$IIVPW,6.05,N,3.12,M*51
$IIVWR,024.5,R,16.9,N,8.7,M,31.3,K*4A
$IIVWT,045.5,R,9.8,N,5.1,M,18.1,K*76
$IIGSA,,3,27,04,12,30,14,02,29,09,,,,,,1,*7F
!AIVDO,1,1,,,B3WgRq00Bh@dHf6KI6`2ow`UwP06,0*7B
!AIVDM,1,1,,A,13S5F90P0011uv:IfGeP0?vP08:;,0*19
$IIGSV,2,1,24,12,73,313,48,09,60,132,47,27,52,133,42,30,39,274,44*60
!AIVDM,2,1,8,B,53S:0v029UuWT47;G7DpuH4h`40000000000000i2hC925k8N3TRBQBh@000,0*79
$IIGSV,2,2,24,14,31,305,43,04,23,075,44,02,22,119,43,29,12,209,40*62
!AIVDM,2,2,8,B,00000000002,2*2D
$IIMTW,24.6,C*13
$IIZDA,145117,06,07,2010,,*5A
$IIHVM,1,E*27
$IIZTG,145117,073444,1*53
$IIGGA,145117,4456.101,N,01435.222,E,1,08,1,2,M,43,M,,*42
$IIMWD,046.0,T,045.0,M,9.2,N,4.7,M*4F
$IIVLW,17536.3,N,184.26,N*71
$IIVTG,006.0,T,005.0,M,7.6,N,14.1,K*6F
!AIVDM,1,1,,B,13S:`20P00141dHIU9gh0?vR05k<,0*37
$IIAPB,A,A,,,N,,,,,1,303.5,M,,,A*27
!AIVDO,1,1,,,B3WgRq00C0@dHg6KI7t2cwa5wP06,0*5B
$IIBWC,145118,,,,,304.5,T,303.5,M,57.60,N,1*15
$IIDBT,207.7,f,63.32,M,34.61,F*17
$IIGLL,4456.101,N,01435.222,E,145118,A,A*5A
$IIHDG,003.0,,,1,E*3E
$IIHDM,003.0,M*21
$IIHDT,004.0,T*26
$IIRMB,A,,,,1,,,,,57.60,304.5,,,A*6A
$IIRMC,145118,A,4456.104,N,01435.223,E,7.6,005.0,060710,1,E,A*19
$IIRSA,1,A,,V*66
!AIVDO,1,1,,,B3WgRq00Bh@dHhVKI9@2gwaUwP06,0*33
!AIVDM,1,1,,B,D@2A`UR<`O6D,0*54
$IIMWV,024.5,R,16.6,N,A*0F
$IIMWV,047.5,T,9.3,N,A*37
$IIVHW,004.0,T,003.0,M,9.06,N,16.78,K*65
!AIVDM,1,1,,A,13S7UF0P00128phIg?i@0?vT00S?,0*69
$IIVPW,6.00,N,3.09,M*5E
$IIVWR,024.5,R,16.6,N,8.6,M,30.7,K*41
$IIVWT,048.5,R,9.1,N,4.7,M,16.9,K*73
$IIAPB,A,A,,,N,,,,,1,303.5,M,,,A*27
!AIVDM,1,1,,B,4@2A`PQuak>kC10f5hIhc`700<1B,0*4A
$IIBWC,145119,,,,,304.5,T,303.5,M,57.60,N,1*14
!AIVDM,1,1,,A,4@2A`UQuak>kB13d20IWT2700@;f,0*1B
$IIDBT,205.2,f,62.56,M,34.20,F*16
$IIGLL,4456.106,N,01435.223,E,145120,A,A*57
$IIHDG,003.0,,,1,E*3E
$IIHDM,003.0,M*21
!AIVDO,1,1,,,B3WgRq00C0@dHiVKI:T2Wwb5wP06,0*2F
$IIHDT,004.0,T*26
$IIRMB,A,,,,1,,,,,57.60,304.5,,,A*6A
$IIRMC,145120,A,4456.106,N,01435.223,E,7.6,005.0,060710,1,E,A*10
$IIRSA,1,A,,V*66
$IIMWV,024.5,R,15.8,N,A*02
$IIMWV,049.5,T,8.6,N,A*3D
$IIVHW,004.0,T,003.0,M,8.79,N,16.28,K*69
$IIVPW,5.71,N,2.94,M*5E
$IIVWR,026.5,R,15.8,N,8.1,M,29.3,K*45
$IIVWT,052.5,R,8.8,N,4.5,M,16.3,K*78
$IIAPB,A,A,,,N,,,,,1,303.5,M,,,A*27
!AIVDO,1,1,,,B3WgRq00Bh@dHjVKI;t3SwbUwP06,0*31
$IIBWC,145121,,,,,304.5,T,303.5,M,57.60,N,1*1F
$IIDBT,204.5,f,62.35,M,34.08,F*1F
$IIGLL,4456.108,N,01435.223,E,145121,A,A*58
$IIHDG,003.5,,,1,E*3B
$IIHDM,003.5,M*24
!AIVDM,1,1,,A,13S7i40P0011HuNIlgjh0?v`0D0D,0*57
$IIHDT,004.5,T*23
$IIRMB,A,,,,1,,,,,57.60,304.5,,,A*6A
$IIRMC,145121,A,4456.110,N,01435.223,E,7.6,005.0,060710,1,E,A*16
$IIRSA,1,A,,V*66
$IIMWV,024.5,R,15.9,N,A*03
$IIMWV,048.5,T,8.8,N,A*32
!AIVDO,1,1,,,B3WgRq00C0@dHkVKI=@1swc5wP06,0*18
$IIVHW,004.0,T,003.0,M,8.63,N,15.98,K*6A
$IIVPW,5.82,N,3.00,M*5E
$IIVWR,024.5,R,16.4,N,8.5,M,30.4,K*43
$IIVWT,046.5,R,9.3,N,4.8,M,17.2,K*7A
$IIGGA,145122,4456.110,N,01435.223,E,1,08,1,1,M,43,M,,*46
$IIMWD,051.0,T,050.0,M,9.3,N,4.8,M*43
$IIVLW,17536.3,N,184.26,N*71
$IIVTG,005.0,T,004.0,M,7.6,N,14.1,K*6D
$IIAPB,A,A,,,N,,,,,1,303.5,M,,,A*27
!AIVDO,1,1,,,B3WgRq00Bh@dHlVKI>T3cwcUwP06,0*23
$IIBWC,145123,,,,,304.5,T,303.5,M,57.60,N,1*1D
$IIDBT,204.5,f,62.35,M,34.08,F*1F
!AIVDM,1,1,,A,13SdIG001g12w><Idk<5LJFf0@=n,0*77
$IIGLL,4456.112,N,01435.223,E,145123,A,A*51
$IIHDG,003.0,,,1,E*3E
$IIHDM,003.0,M*21
$IIHDT,004.0,T*26
$IIRMB,A,,,,1,,,,,57.60,304.5,,,A*6A
$IIRMC,145123,A,4456.114,N,01435.224,E,7.6,005.0,060710,1,E,A*17
$IIRSA,1,A,,V*66
$IIMWV,025.0,R,16.0,N,A*0D
$IIMWV,048.5,T,9.0,N,A*3B
$IIVHW,004.0,T,003.0,M,8.53,N,15.80,K*60
!AIVDO,1,1,,,B3WgRq00Bh@dHmVKI?p3Cwd5wP06,0*40
$IIVPW,5.95,N,3.07,M*5F
$IIVWR,025.0,R,16.9,N,8.7,M,31.3,K*4E
$IIVWT,047.0,R,9.7,N,5.0,M,18.0,K*7E
!AIVDM,1,1,,B,13Sg0:4P0N129NDIgQo;`Ovf0D0I,0*2A
$IIAPB,A,A,,,N,,,,,1,303.5,M,,,A*27
$IIBWC,145125,,,,,304.5,T,303.5,M,57.60,N,1*1B
$IIDBT,199.7,f,60.88,M,33.28,F*1B
!AIVDM,1,1,,A,402A`S1uak>kH13@4tInBW7005k<,0*54
$IIGLL,4456.116,N,01435.224,E,145125,A,A*54
!AIVDO,1,1,,,B3WgRq00Bh@dHo6KIA<3OwdUwP06,0*7C
$IIHDG,003.0,,,1,E*3E
$IIHDM,003.0,M*21
$IIHDT,004.0,T*26
$IIRMB,A,,,,1,,,,,57.60,304.5,,,A*6A
$IIRMC,145125,A,4456.116,N,01435.224,E,7.6,005.0,060710,1,E,A*13
$IIRSA,1,A,,V*66
$IIMWV,025.5,R,16.8,N,A*00
$IIMWV,048.5,T,9.6,N,A*3D
$IIVHW,003.5,T,002.5,M,8.79,N,16.28,K*6F
$IIVPW,4.33,N,2.23,M*55
$IIVWR,033.5,R,16.4,N,8.5,M,30.4,K*45
!AIVDO,1,1,,,B3WgRq00Bh@dHpVKIBP3;we5wP06,0*79
$IIVWT,061.5,R,10.2,N,5.3,M,18.9,K*48
$IIGSA,,3,27,04,12,30,14,02,29,09,,,,,,1,*7F
!AIVDM,1,1,,B,13S5F90P0011uv:IfGeP0?vl05k<,0*7D
$IIGSV,2,1,24,12,73,313,47,09,60,132,47,27,52,133,44,30,39,274,44*69
!AIVDM,1,1,,A,13S:`20P00141dHIU9gh0?vl08@8,0*28
!AIVDO,1,1,,,B3WgRq00C0@dHqVKICl2oweUwP06,0*29
$IIGSV,2,2,24,14,31,305,44,04,23,075,42,02,22,119,45,29,12,209,39*6B
$IIMTW,24.5,C*10
$IIZDA,145127,06,07,2010,,*59
$IIHVM,1,E*27
$IIZTG,145127,073444,1*50
$IIGGA,145127,4456.122,N,01435.224,E,1,08,1,1,M,43,M,,*45
$IIMWD,056.5,T,055.5,M,8.7,N,4.5,M*49
$IIVLW,17536.4,N,184.29,N*79
!AIVDM,1,1,,B,13S7UF0P00128phIg?i@0?vn0@@U,0*59
$IIVTG,005.0,T,004.0,M,7.6,N,14.1,K*6D
$IIAPB,A,A,,,N,,,,,1,303.5,M,,,A*27
$IIBWC,145128,,,,,304.5,T,303.5,M,57.60,N,1*16
$IIDBT,193.0,f,58.84,M,32.16,F*1D
!AIVDO,1,1,,,B3WgRq00C0@dHs6KIE82Gwf5wP06,0*52
$IIGLL,4456.122,N,01435.224,E,145128,A,A*5E
$IIHDG,003.0,,,1,E*3E
$IIHDM,003.0,M*21
$IIHDT,004.0,T*26
$IIRMB,A,,,,1,,,,,57.60,304.5,,,A*6A
$IIRMC,145128,A,4456.124,N,01435.225,E,7.6,005.0,060710,1,E,A*1E
$IIRSA,1,A,,V*66
$IIMWV,033.0,R,16.6,N,A*0C
$IIMWV,060.5,T,10.3,N,A*0A
!AIVDM,1,1,,A,13Srb@8P00141spIU<f00?vp08A@,0*0E
$IIVHW,004.0,T,003.0,M,8.82,N,16.33,K*67
$IIVPW,4.34,N,2.24,M*55
$IIVWR,033.0,R,16.6,N,8.6,M,30.7,K*42
!AIVDO,1,1,,,B3WgRq00Bh@dHt6KIFL3;wfUwP06,0*66
$IIVWT,060.5,R,10.3,N,5.3,M,19.1,K*41
$IIAPB,A,A,,,N,,,,,1,303.5,M,,,A*27
$IIBWC,145129,,,,,304.5,T,303.5,M,57.60,N,1*17
!AIVDM,1,1,,A,4@2A`PQuak>kM10f5hIhc`7008AU,0*24
$IIDBT,188.1,f,57.35,M,31.35,F*11
!AIVDM,1,1,,B,4@2A`UQuak>kL13d20IWT2700@AU,0*5F
$IIGLL,4456.126,N,01435.225,E,145130,A,A*52
$IIHDG,003.0,,,1,E*3E
$IIHDM,003.0,M*21
$IIHDT,004.0,T*26
$IIRMB,A,,,,1,,,,,57.60,304.5,,,A*6A
$IIRMC,145130,A,4456.126,N,01435.225,E,7.6,005.0,060710,1,E,A*15
!AIVDO,1,1,,,B3WgRq00C0@dHu6KIGh3?wg5wP06,0*7E
$IIRSA,1,A,,V*66
$IIMWV,026.5,R,17.3,N,A*09
$IIMWV,049.0,T,10.2,N,A*05
$IIVHW,004.0,T,003.0,M,8.82,N,16.33,K*67
$IIVPW,5.79,N,2.98,M*5A
$IIVWR,026.0,R,17.3,N,8.9,M,32.0,K*48
$IIVWT,048.5,R,10.1,N,5.2,M,18.7,K*4F
$IIAPB,A,A,,,N,,,,,1,303.5,M,,,A*27
$IIBWC,145131,,,,,304.5,T,303.5,M,57.60,N,1*1E
$IIDBT,188.7,f,57.53,M,31.45,F*10
!AIVDO,1,1,,,B3WgRq00Bh@dHvVKII833wgUwP06,0*76
$IIGLL,4456.129,N,01435.225,E,145131,A,A*5C
$IIHDG,003.0,,,1,E*3E
$IIHDM,003.0,M*21
$IIHDT,004.0,T*26
$IIRMB,A,,,,1,,,,,57.60,304.5,,,A*6A
$IIRMC,145131,A,4456.131,N,01435.225,E,7.6,005.0,060710,1,E,A*12
$IIRSA,1,A,,V*66
$IIMWV,024.0,R,16.4,N,A*08
$IIMWV,047.5,T,8.8,N,A*3D
$IIVHW,004.0,T,003.0,M,8.73,N,16.17,K*6F
$IIVPW,5.92,N,3.05,M*5A
$IIVWR,024.0,R,16.1,N,8.3,M,29.8,K*41
$IIVWT,047.5,R,8.8,N,4.5,M,16.3,K*7C
!AIVDO,1,1,,,B3WgRq00C0@dHwVKIJH2Kwh5wP06,0*4B
$IIGGA,145132,4456.131,N,01435.225,E,1,08,1,0,M,43,M,,*43
$IIMWD,051.5,T,050.5,M,8.8,N,4.5,M*44
$IIVLW,17536.4,N,184.29,N*79
$IIVTG,005.0,T,004.0,M,7.6,N,14.1,K*6D
$IIAPB,A,A,,,N,,,,,1,303.5,M,,,A*27
$IIBWC,145133,,,,,304.5,T,303.5,M,57.60,N,1*1C
!AIVDM,1,1,,A,D@2A`UQ8hNfp,0*3D
$IIDBT,181.0,f,55.18,M,30.16,F*14
$IIGLL,4456.133,N,01435.225,E,145133,A,A*55
!AIVDO,1,1,,,B3WgRq00Bh@dI0VKIKd3SwhUwP06,0*00
$IIHDG,003.0,,,1,E*3E
$IIHDM,003.0,M*21
$IIHDT,004.0,T*26
$IIRMB,A,,,,1,,,,,57.60,304.5,,,A*6A
$IIRMC,145133,A,4456.135,N,01435.226,E,7.6,005.0,060710,1,E,A*17
$IIRSA,1,A,,V*66
$IIMWV,029.0,R,16.5,N,A*04
$IIMWV,054.0,T,10.0,N,A*0B
$IIVHW,004.0,T,003.0,M,8.73,N,16.17,K*6F
$IIVPW,5.17,N,2.66,M*53
$IIVWR,029.0,R,16.7,N,8.6,M,30.9,K*46
$IIVWT,054.0,R,10.0,N,5.2,M,18.5,K*44
!AIVDM,1,1,,A,13Sg0:4P0N129K:IgQwKRww200S4,0*0F
!AIVDO,1,1,,,B3WgRq00Bh@dI26KIM03Cwi5wP06,0*41
$IIAPB,A,A,,,N,,,,,1,303.5,M,,,A*27
$IIBWC,145135,,,,,304.5,T,303.5,M,57.60,N,1*1A
$IIDBT,175.1,f,53.38,M,29.18,F*1C
$IIGLL,4456.137,N,01435.226,E,145135,A,A*54
$IIHDG,003.0,,,1,E*3E
$IIHDM,003.0,M*21
$IIHDT,004.0,T*26
$IIRMB,A,,,,1,,,,,57.60,304.5,,,A*6A
!AIVDO,1,1,,,B3WgRq00C0@dI3VKIND3CwiUwP06,0*6E
$IIRMC,145135,A,4456.137,N,01435.226,E,7.6,005.0,060710,1,E,A*13
$IIRSA,0,A,,V*67
$IIMWV,029.0,R,18.4,N,A*0B
$IIMWV,051.0,T,11.4,N,A*0B
$IIVHW,004.0,T,003.0,M,8.84,N,16.37,K*65
$IIVPW,5.56,N,2.87,M*59
$IIVWR,028.0,R,18.4,N,9.5,M,34.1,K*44
$IIVWT,049.5,R,11.3,N,5.8,M,20.9,K*42
!AIVDO,1,1,,,B3WgRq00C0@dI4VKIOd2Swj5wP06,0*3A
$IIGSA,,3,27,04,12,30,14,02,29,09,,,,,,1,*7F
$IIGSV,2,1,24,12,74,318,47,09,58,133,48,27,50,134,44,30,40,275,43*6D
$IIGSV,2,2,24,14,31,304,42,02,23,118,43,04,23,074,43,29,13,209,38*6A
$IIMTW,24.5,C*10
$IIZDA,145137,06,07,2010,,*58
$IIHVM,1,E*27
$IIZTG,145137,073444,1*51
!AIVDO,1,1,,,B3WgRq00C0@dI5VKIQ03wwjUwP06,0*34
$IIGGA,145137,4456.141,N,01435.226,E,1,08,1,0,M,43,M,,*42
$IIMWD,055.5,T,054.5,M,10.4,N,5.4,M*71
$IIVLW,17536.4,N,184.31,N*70
$IIVTG,005.0,T,004.0,M,7.6,N,14.1,K*6D
!AIVDO,1,1,,A,B3WgRq00Bh@dI76KIRD3;wk5oP06,0*0C
$IIAPB,A,A,,,N,,,,,1,303.5,M,,,A*27
!AIVDM,1,1,,A,13S7UF0P00128phIg?i@0?w:0D0D,0*6A
$IIBWC,145138,,,,,304.5,T,303.5,M,57.60,N,1*17
$IIDBT,171.2,f,52.20,M,28.53,F*1D
$IIGLL,4456.143,N,01435.227,E,145138,A,A*5B
$IIHDG,003.0,,,1,E*3E
$IIHDM,003.0,M*21
$IIHDT,004.0,T*26
$IIRMB,A,,,,1,,,,,57.60,304.5,,,A*6A
$IIRMC,145138,A,4456.145,N,01435.227,E,7.6,005.0,060710,1,E,A*1A
$IIRSA,0,A,,V*67
!AIVDO,1,1,,,B3WgRq00C0@dI8VKIS`3owkUwP06,0*72
$IIMWV,026.0,R,18.2,N,A*02
$IIMWV,047.0,T,10.9,N,A*00
$IIVHW,004.0,T,003.0,M,8.94,N,16.56,K*63
$IIVPW,5.84,N,3.01,M*59
$IIVWR,026.0,R,17.5,N,9.0,M,32.4,K*42
$IIVWT,047.0,R,10.4,N,5.4,M,19.3,K*43
$IIAPB,A,A,,,N,,,,,1,303.5,M,,,A*27
$IIBWC,145139,,,,,304.5,T,303.5,M,57.60,N,1*16
!AIVDM,1,1,,A,4@2A`UQuak>kV13d20IWT2700@GL,0*59
$IIDBT,166.5,f,50.76,M,27.75,F*16
$IIGLL,4456.147,N,01435.228,E,145140,A,A*5F
$IIHDG,003.0,,,1,E*3E
!AIVDO,1,1,,,B3WgRq00Bh@dI:6KITt3;wl5wP06,0*69
$IIHDM,003.0,M*21
$IIHDT,004.0,T*26
$IIRMB,A,,,,1,,,,,57.60,304.5,,,A*6A
$IIRMC,145140,A,4456.147,N,01435.228,E,7.6,005.0,060710,1,E,A*18
$IIRSA,0,A,,V*67
$IIMWV,024.5,R,16.4,N,A*0D
$IIMWV,050.5,T,8.8,N,A*3B
$IIVHW,004.0,T,003.0,M,9.35,N,17.31,K*69
$IIVPW,5.95,N,3.07,M*5F
$IIVWR,024.5,R,16.4,N,8.5,M,30.4,K*43
$IIVWT,047.0,R,8.5,N,4.4,M,15.7,K*72
$IIAPB,A,A,,,N,,,,,1,303.5,M,,,A*27
!AIVDO,1,1,,,B3WgRq00C0@dI;6KIV@2kwlUwP06,0*36
$IIBWC,145141,,,,,304.5,T,303.5,M,57.60,N,1*19
$IIDBT,166.8,f,50.85,M,27.80,F*1D
$IIGLL,4456.149,N,01435.228,E,145141,A,A*50
$IIHDG,003.0,,,1,E*3E
$IIHDM,003.0,M*21
$IIHDT,004.0,T*26
$IIRMB,A,,,,1,,,,,57.60,304.5,,,A*6A
$IIRMC,145141,A,4456.152,N,01435.228,E,7.6,005.0,060710,1,E,A*1D
$IIRSA,0,A,,V*67
$IIMWV,027.0,R,17.1,N,A*0F
$IIMWV,052.5,T,9.7,N,A*37
!AIVDO,1,1,,,B3WgRq00Bh@dI<VKIWT3Swm5wP06,0*45
$IIVHW,004.0,T,003.0,M,9.25,N,17.13,K*68
$IIVPW,5.57,N,2.87,M*58
$IIVWR,027.0,R,16.8,N,8.7,M,31.1,K*4F
$IIVWT,051.5,R,9.7,N,5.0,M,18.0,K*7C
$IIGGA,145142,4456.152,N,01435.228,E,1,08,1,0,M,43,M,,*4C
$IIMWD,055.0,T,054.0,M,9.7,N,5.0,M*4E
$IIVLW,17536.4,N,184.31,N*70
$IIVTG,005.0,T,004.0,M,7.6,N,14.1,K*6D
$IIAPB,A,A,,,N,,,,,1,303.5,M,,,A*27
$IIBWC,145143,,,,,304.5,T,303.5,M,57.60,N,1*1B
$IIDBT,162.9,f,49.66,M,27.15,F*11
!AIVDO,1,1,,,B3WgRq00C0@dI>6KI`p4;wmUwP06,0*62
$IIGLL,4456.154,N,01435.228,E,145143,A,A*5E
$IIHDG,002.5,,,1,E*3A
$IIHDM,002.5,M*25
!AIVDM,1,1,,A,13SdIG0v1g12wP`IdiI5KbEF0@IS,0*31
!AIVDM,2,1,9,A,53SdIG01iC;WT47G;?0pu<4<00000000000000003hT1;6Ug0933l0DcEPC0,0*64
!AIVDM,2,2,9,A,RDjh@000001,2*48
$IIHDT,003.5,T*24
$IIRMB,A,,,,1,,,,,57.60,304.5,,,A*6A
$IIRMC,145143,A,4456.156,N,01435.229,E,7.6,005.0,060710,1,E,A*1A
$IIRSA,1,A,,V*66
$IIMWV,024.0,R,16.9,N,A*05
$IIMWV,045.0,T,9.7,N,A*34
$IIVHW,003.0,T,002.0,M,8.67,N,16.06,K*6C
$IIVPW,6.13,N,3.16,M*52
$IIVWR,024.0,R,17.0,N,8.8,M,31.5,K*4E
!AIVDO,1,1,,,B3WgRq00Bh@dI@6KIb<2Wwn5wP06,0*02
$IIVWT,047.5,R,9.3,N,4.8,M,17.2,K*7B
$IIAPB,A,A,,,N,,,,,1,303.5,M,,,A*27
$IIBWC,145145,,,,,304.5,T,303.5,M,57.60,N,1*1D
$IIDBT,160.2,f,48.84,M,26.70,F*17
$IIGLL,4456.158,N,01435.229,E,145145,A,A*55
$IIHDG,002.0,,,1,E*3F
$IIHDM,002.0,M*20
!AIVDO,1,1,,,B3WgRq00Bh@dIA6KIcT2gwnUwP06,0*3A
$IIHDT,003.0,T*21
$IIRMB,A,,,,1,,,,,57.60,304.5,,,A*6A
$IIRMC,145145,A,4456.158,N,01435.229,E,7.6,005.0,060710,1,E,A*12
$IIRSA,1,A,,V*66
$IIMWV,023.0,R,16.6,N,A*0D
$IIMWV,048.0,T,8.7,N,A*38
$IIVHW,003.0,T,002.0,M,9.45,N,17.50,K*6F
$IIVPW,6.68,N,3.44,M*59
$IIVWR,021.5,R,16.6,N,8.6,M,30.7,K*44
$IIVWT,043.5,R,9.1,N,4.7,M,16.9,K*78
!AIVDO,1,1,,,B3WgRq00C0@dIB6KIdp2owo5wP06,0*2A
$IIGSA,,3,27,04,12,30,14,02,29,09,,,,,,1,*7F
$IIGSV,2,1,24,12,74,318,48,09,58,133,47,27,50,134,44,30,40,275,43*6D
$IIGSV,2,2,24,14,31,304,43,02,23,118,43,04,23,074,41,29,13,209,38*69
$IIMTW,24.4,C*11
$IIZDA,145147,06,07,2010,,*5F
$IIHVM,1,E*27
$IIZTG,145147,073444,1*56
!AIVDO,1,1,,,B3WgRq00Bh@dICVKIf<3;woUwP06,0*69
$IIGGA,145147,4456.162,N,01435.229,E,1,08,1,0,M,43,M,,*4B
$IIMWD,053.0,T,052.0,M,9.3,N,4.8,M*43
$IIVLW,17536.4,N,184.34,N*75
$IIVTG,005.0,T,004.0,M,7.6,N,14.1,K*6D
$IIAPB,A,A,,,N,,,,,1,303.5,M,,,A*27
$IIBWC,145148,,,,,304.5,T,303.5,M,57.60,N,1*10
$IIDBT,160.2,f,48.84,M,26.70,F*17
!AIVDO,1,1,,,B3WgRq00C0@dIDVKIgL1wwp5wP06,0*77
$IIGLL,4456.164,N,01435.229,E,145148,A,A*57
$IIHDG,002.0,,,1,E*3F
$IIHDM,002.0,M*20
$IIHDT,003.0,T*21
$IIRMB,A,,,,1,,,,,57.60,304.5,,,A*6A
$IIRMC,145148,A,4456.166,N,01435.230,E,7.6,005.0,060710,1,E,A*1A
$IIRSA,0,A,,V*67
$IIMWV,025.5,R,17.3,N,A*0A
$IIMWV,049.5,T,9.7,N,A*3D
$IIVHW,003.0,T,002.0,M,9.29,N,17.20,K*62
$IIVPW,5.76,N,2.97,M*5A
$IIVWR,025.5,R,17.0,N,8.8,M,31.5,K*4A
!AIVDO,1,1,,,B3WgRq00Bh@dIEVKIhl2cwpUwP06,0*77
$IIVWT,045.5,R,10.2,N,5.3,M,18.9,K*4E
$IIAPB,A,A,,,N,,,,,1,303.5,M,,,A*27
$IIBWC,145149,,,,,304.5,T,303.5,M,57.60,N,1*11
$IIDBT,160.3,f,48.87,M,26.71,F*14
!AIVDM,1,1,,A,4@2A`PQuak>ki10f5hIhc`700@MC,0*62
$IIGLL,4456.168,N,01435.230,E,145150,A,A*5A
$IIHDG,001.0,,,1,E*3C
$IIHDM,001.0,M*23
$IIHDT,002.0,T*20
$IIRMB,A,,,,1,,,,,57.60,304.5,,,A*6A
$IIRMC,145150,A,4456.168,N,01435.230,E,7.6,005.0,060710,1,E,A*1D
$IIRSA,0,A,,V*67
!AIVDO,1,1,,,B3WgRq00Bh@dIFVKIj82kwq5wP06,0*4B
$IIMWV,026.5,R,17.6,N,A*0C
$IIMWV,049.5,T,10.3,N,A*01
$IIVHW,002.5,T,001.5,M,9.06,N,16.78,K*61
$IIVPW,5.88,N,3.03,M*57
$IIVWR,026.5,R,17.6,N,9.1,M,32.6,K*47
$IIVWT,050.5,R,10.3,N,5.3,M,19.1,K*42
$IIAPB,A,A,,,N,,,,,1,303.5,M,,,A*27
$IIBWC,145151,,,,,304.5,T,303.5,M,57.60,N,1*18
$IIDBT,162.1,f,49.42,M,27.01,F*1A
$IIGLL,4456.171,N,01435.230,E,145151,A,A*53
$IIHDG,001.0,,,1,E*3C
$IIHDM,001.5,M*26
!AIVDO,1,1,,,B3WgRq00C0@dIGVKIkL2?wqUwP06,0*52
$IIHDT,002.5,T*25
$IIRMB,A,,,,1,,,,,57.60,304.5,,,A*6A
$IIRMC,145151,A,4456.173,N,01435.230,E,7.6,004.0,060710,1,E,A*17
$IIRSA,0,A,,V*67
$IIMWV,027.0,R,17.0,N,A*0E
$IIMWV,051.0,T,9.9,N,A*3F
$IIVHW,002.0,T,001.0,M,8.94,N,16.56,K*67
$IIVPW,5.63,N,2.90,M*59
$IIVWR,027.0,R,17.0,N,8.8,M,31.5,K*4D
$IIVWT,051.0,R,9.9,N,5.1,M,18.3,K*75
!AIVDO,1,1,,,B3WgRq00Bh@dIHVKIlh1owr5wP06,0*17
$IIGGA,145152,4456.173,N,01435.230,E,1,08,1,0,M,43,M,,*47
$IIMWD,053.5,T,052.5,M,9.9,N,5.1,M*41
$IIVLW,17536.4,N,184.34,N*75
$IIVTG,004.0,T,003.0,M,7.6,N,14.1,K*6B
$IIAPB,A,A,,,N,,,,,1,303.5,M,,,A*27
$IIBWC,145153,,,,,304.5,T,303.5,M,57.60,N,1*1A
$IIDBT,162.2,f,49.45,M,27.03,F*1C
!AIVDO,1,1,,,B3WgRq00Bh@dII6KIn41wwrUwP06,0*50
$IIGLL,4456.175,N,01435.231,E,145153,A,A*54
$IIHDG,001.0,,,1,E*3C
$IIHDM,001.0,M*23
$IIHDT,002.0,T*20
$IIRMB,A,,,,1,,,,,57.60,304.5,,,A*6A
!AIVDM,2,1,0,A,53Sg0:000003T47GKG4ThuHTd00000000000000t5hj4>40004UPC0RDjhH3,0*57
$IIRMC,145153,A,4456.177,N,01435.231,E,7.6,004.0,060710,1,E,A*10
!AIVDM,2,2,0,A,ADPAh000002,2*6A
$IIRSA,0,A,,V*67
$IIMWV,029.0,R,17.4,N,A*04
$IIMWV,052.5,T,10.6,N,A*0E
$IIVHW,002.5,T,001.5,M,8.71,N,16.13,K*6D
$IIVPW,5.12,N,2.64,M*54
$IIVWR,029.0,R,16.6,N,8.6,M,30.7,K*49
$IIVWT,055.0,R,9.8,N,5.1,M,18.1,K*72
!AIVDO,1,1,,,B3WgRq00BP@dIIVKIoH1wws5wP06,0*14
$IIAPB,A,A,,,N,,,,,1,303.5,M,,,A*27
$IIBWC,145155,,,,,304.5,T,303.5,M,57.60,N,1*1C
!AIVDM,1,1,,A,13Sg0:4P0N129D8IgR@sKOwb0<0H,0*6C
$IIDBT,163.3,f,49.79,M,27.21,F*13
$IIGLL,4456.179,N,01435.231,E,145155,A,A*5E
$IIHDG,001.0,,,1,E*3C
$IIHDM,001.0,M*23
$IIHDT,002.0,T*20
$IIRMB,A,,,,1,,,,,57.60,304.5,,,A*6A
!AIVDO,1,1,,,B3WgRq00Bh@dIJVKIpd2SwsUwP06,0*5B
$IIRMC,145155,A,4456.179,N,01435.231,E,7.6,004.0,060710,1,E,A*18
$IIRSA,0,A,,V*67
$IIMWV,029.0,R,16.5,N,A*04
$IIMWV,054.0,T,9.8,N,A*3B
$IIVHW,002.0,T,001.0,M,8.65,N,16.02,K*68
$IIVPW,5.08,N,2.62,M*59
$IIVWR,029.0,R,16.5,N,8.5,M,30.6,K*48
!AIVDM,1,1,,A,13S5F90P0011uv:IfGeP0?wf08Pv,0*09
$IIVWT,052.5,R,9.7,N,5.0,M,18.0,K*7F
!AIVDO,1,1,,,B3WgRq00Bh@dIKVKIr02?wt5wP06,0*07
$IIGSA,,3,27,04,12,30,14,02,29,09,,,,,,1,*7F
$IIGSV,2,1,24,12,74,318,48,09,58,133,47,27,50,134,44,30,40,275,43*6D
$IIGSV,2,2,24,14,31,304,44,02,23,118,41,04,23,074,41,29,13,209,40*63
$IIMTW,24.5,C*10
$IIZDA,145157,06,07,2010,,*5E
$IIHVM,1,E*27
$IIZTG,145157,073444,1*57
!AIVDO,1,1,,,B3WgRq00Bh@dILVKIsD1swtUwP06,0*5A
$IIGGA,145157,4456.183,N,01435.231,E,1,08,1,0,M,43,M,,*4C
$IIMWD,052.0,T,051.0,M,9.9,N,5.1,M*43
$IIVLW,17536.4,N,184.36,N*77
$IIVTG,003.0,T,002.0,M,7.6,N,14.1,K*6D
$IIAPB,A,A,,,N,,,,,1,303.5,M,,,A*27
$IIBWC,145158,,,,,304.5,T,303.5,M,57.60,N,1*11
$IIDBT,164.9,f,50.27,M,27.48,F*12
$IIGLL,4456.185,N,01435.231,E,145158,A,A*50
$IIHDG,001.0,,,1,E*3C
!AIVDO,1,1,,,B3WgRq00C0@dIM6KIt`0Swu5wP06,0*01
$IIHDM,001.0,M*23
$IIHDT,002.0,T*20
$IIRMB,A,,,,1,,,,,57.60,304.5,,,A*6A
$IIRMC,145158,A,4456.187,N,01435.232,E,7.6,003.0,060710,1,E,A*10
$IIRSA,1,A,,V*66
$IIMWV,020.5,R,18.2,N,A*01
$IIMWV,037.5,T,10.4,N,A*0F
$IIVHW,002.0,T,001.0,M,8.79,N,16.28,K*6D
$IIVPW,6.97,N,3.59,M*55
$IIVWR,020.5,R,18.4,N,9.5,M,34.1,K*49
!AIVDM,1,1,,A,13S7UF0P00128phIg?i@0?wl05k<,0*6E
$IIVWT,037.5,R,10.5,N,5.4,M,19.4,K*47
$IIAPB,A,A,,,N,,,,,1,303.5,M,,,A*27
$IIBWC,145159,,,,,304.5,T,303.5,M,57.60,N,1*10
!AIVDO,1,1,,,B3WgRq00Bh@dIMVKIut2;wuUsP06,0*23
!AIVDM,1,1,,A,4@2A`UQuak>kr13d20IWT2700<1D,0*7F
$IIDBT,165.2,f,50.37,M,27.53,F*13
$IIGLL,4456.190,N,01435.232,E,145200,A,A*59
$IIHDG,000.5,,,1,E*38
$IIHDM,000.5,M*27
$IIHDT,001.5,T*26
$IIRMB,A,,,,1,,,,,57.60,304.5,,,A*6A
$IIRMC,145200,A,4456.190,N,01435.232,E,7.6,003.0,060710,1,E,A*18
$IIRSA,0,A,,V*67
$IIMWV,024.5,R,17.5,N,A*0D
$IIMWV,045.5,T,10.1,N,A*0F
$IIVHW,001.0,T,000.0,M,8.79,N,16.28,K*6F
$IIVPW,6.16,N,3.18,M*59
$IIVWR,024.5,R,17.5,N,9.0,M,32.4,K*45
!AIVDO,1,1,,,B3WgRq00Bh@dINVKIw@2cwP5wP06,0*0F
$IIVWT,045.5,R,10.1,N,5.2,M,18.7,K*42
$IIAPB,A,A,,,N,,,,,1,303.5,M,,,A*27
$IIBWC,145201,,,,,304.5,T,303.5,M,57.60,N,1*1E
$IIDBT,167.1,f,50.95,M,27.85,F*11
$IIGLL,4456.192,N,01435.232,E,145201,A,A*5A
$IIHDG,000.0,,,1,E*3D
$IIHDM,000.0,M*22
$IIHDT,001.0,T*23
!AIVDM,1,1,,A,13S7i40P0011HuNIlgjh0?v00<0D,0*7F
$IIRMB,A,,,,1,,,,,57.60,304.5,,,A*6A
$IIRMC,145201,A,4456.192,N,01435.232,E,7.6,003.0,060710,1,E,A*1B
!AIVDO,1,1,,,B3WgRq00C0@dIOVKJ0T1SwPUwP06,0*54
$IIRSA,0,A,,V*67
$IIMWV,017.0,R,18.5,N,A*07
$IIMWV,036.0,T,10.3,N,A*0C
$IIVHW,002.0,T,001.0,M,9.13,N,16.91,K*62
$IIVPW,7.39,N,3.81,M*55
$IIVWR,019.0,R,18.2,N,9.4,M,33.7,K*40
$IIVWT,036.5,R,10.0,N,5.2,M,18.5,K*45
$IIGGA,145202,4456.194,N,01435.232,E,1,08,1,1,M,43,M,,*4B
$IIMWD,036.0,T,035.0,M,10.3,N,5.3,M*73
$IIVLW,17536.4,N,184.36,N*77
!AIVDO,1,1,,,B3WgRq00Bh@dIP6KJ1t1swQ5wP06,0*12
$IIVTG,003.0,T,002.0,M,7.6,N,14.1,K*6D
$IIAPB,A,A,,,N,,,,,1,303.5,M,,,A*27
$IIBWC,145203,,,,,304.5,T,303.5,M,57.60,N,1*1C
$IIDBT,168.4,f,51.34,M,28.06,F*15
!AIVDM,1,1,,B,D02ad:0J`DfpUPD9HUdT9H00001,2*03
$IIGLL,4456.196,N,01435.232,E,145203,A,A*5C
$IIHDG,001.0,,,1,E*3C
$IIHDM,001.0,M*23
!AIVDM,1,1,,A,13SdIG02Af12wj8IdgQ5K:F60L07,0*4A
$IIHDT,002.0,T*20
$IIRMB,A,,,,1,,,,,57.60,304.5,,,A*6A
$IIRMC,145203,A,4456.196,N,01435.232,E,7.6,003.0,060710,1,E,A*1D
$IIRSA,0,A,,V*67
!AIVDO,1,1,,,B3WgRq00Bh@dIPVKJ3@1;wQUwP06,0*6C
$IIMWV,016.5,R,18.3,N,A*05
$IIMWV,030.5,T,10.3,N,A*0F
$IIVHW,002.0,T,001.0,M,8.67,N,16.06,K*6E
$IIVPW,7.39,N,3.81,M*55
$IIVWR,017.0,R,18.3,N,9.4,M,33.9,K*41
$IIVWT,032.0,R,9.8,N,5.1,M,18.1,K*73
$IIAPB,A,A,,,N,,,,,1,303.5,M,,,A*27
$IIBWC,145205,,,,,304.5,T,303.5,M,57.60,N,1*1A
!AIVDO,1,1,,,B3WgRq00Bh@dIQ6KJ4P1gwR5wP06,0*25
$IIDBT,168.8,f,51.46,M,28.13,F*18
$IIGLL,4456.200,N,01435.233,E,145205,A,A*57
$IIHDG,000.5,,,1,E*38
$IIHDM,000.5,M*27
$IIHDT,001.5,T*26
$IIRMB,A,,,,1,,,,,57.60,304.5,,,A*6A
$IIRMC,145205,A,4456.200,N,01435.233,E,7.6,003.0,060710,1,E,A*16
$IIRSA,0,A,,V*67
$IIMWV,022.0,R,17.9,N,A*02
$IIMWV,041.5,T,10.1,N,A*0B
!AIVDO,1,1,,,B3WgRq00Bh@dIR6KJ5l2OwRUwP06,0*50
$IIVHW,001.0,T,000.0,M,9.02,N,16.70,K*6F
$IIVPW,6.76,N,3.48,M*5A
$IIVWR,017.0,R,17.9,N,9.2,M,33.1,K*4A
$IIVWT,033.0,R,9.6,N,4.9,M,17.8,K*73
!AIVDM,1,1,,B,13S5F90P0011uv:IfGeP0?v:083p,0*32
$IIGSA,,3,27,04,12,30,14,02,29,09,,,,,,1,*7F
!AIVDO,1,1,,,B3WgRq00Bh@dIS6KJ781swS5sP06,0*5D
$IIGSV,2,1,24,12,74,318,48,09,58,133,47,27,50,134,44,30,40,275,45*6B
$IIGSV,2,2,24,14,31,304,43,02,23,118,43,04,23,074,42,29,13,209,42*67
$IIMTW,24.5,C*10
$IIZDA,145207,06,07,2010,,*58
$IIHVM,1,E*27
$IIZTG,145207,073356,1*55
$IIGGA,145207,4456.204,N,01435.233,E,1,08,1,1,M,43,M,,*45
!AIVDO,1,1,,B,B3WgRq00Bh@dISVKJ8L1OwSUoP06,0*44
$IIMWD,031.0,T,030.0,M,9.7,N,5.0,M*4E
$IIVLW,17536.5,N,184.39,N*79
$IIVTG,003.0,T,002.0,M,7.6,N,14.1,K*6D
$IIAPB,A,A,,,N,,,,,1,303.5,M,,,A*27
$IIBWC,145208,,,,,304.5,T,303.5,M,57.50,N,1*14
$IIDBT,172.0,f,52.44,M,28.66,F*18
$IIGLL,4456.206,N,01435.233,E,145208,A,A*5C
$IIHDG,359.5,,,1,E*37
$IIHDM,359.5,M*28
$IIHDT,000.5,T*27
$IIRMB,A,,,,1,,,,,57.50,304.5,,,A*69
!AIVDM,1,1,,A,13S:`20P00141dHIU9gh0?v>0<0L,0*7A
!AIVDO,1,1,,,B3WgRq00Bh@dIT6KJ9h1swT5wP06,0*07
$IIRMC,145208,A,4456.206,N,01435.233,E,7.6,003.0,060710,1,E,A*1D
$IIRSA,0,A,,V*67
$IIMWV,019.0,R,17.8,N,A*0B
$IIMWV,029.5,T,9.6,N,A*3A
$IIVHW,000.0,T,359.0,M,8.79,N,16.28,K*61
!AIVDM,1,1,,B,13S7UF0P00128phIg?i@0?v@0D0D,0*12
$IIVPW,7.65,N,3.94,M*58
$IIVWR,015.5,R,17.8,N,9.2,M,33.0,K*4D
$IIVWT,029.5,R,9.6,N,4.9,M,17.8,K*7D
$IIAPB,A,A,,,N,,,,,1,303.5,M,,,A*27
$IIBWC,145209,,,,,304.5,T,303.5,M,57.50,N,1*15
$IIDBT,172.0,f,52.44,M,28.66,F*18
!AIVDO,1,1,,,B3WgRq00C0@dITVKJ;41;wTUwP06,0*48
$IIGLL,4456.211,N,01435.233,E,145210,A,A*53
$IIHDG,359.0,,,1,E*32
$IIHDM,359.0,M*2D
$IIHDT,000.0,T*22
$IIRMB,A,,,,1,,,,,57.50,304.5,,,A*69
!AIVDM,1,1,,B,4@2A`UQuak>l813d20IWT2700<1A,0*34
!AIVDM,1,1,,A,4@2A`PQuak>l910f5hIhc`70085o,0*19
$IIRMC,145210,A,4456.211,N,01435.233,E,7.6,003.0,060710,1,E,A*12
$IIRSA,0,A,,V*67
$IIMWV,017.0,R,17.5,N,A*08
$IIMWV,033.5,T,9.2,N,A*35
$IIVHW,000.5,T,359.5,M,9.00,N,16.67,K*65
$IIVPW,7.51,N,3.87,M*5D
$IIVWR,017.0,R,17.5,N,9.0,M,32.4,K*40
$IIVWT,033.5,R,9.2,N,4.7,M,17.0,K*74
!AIVDO,1,1,,,B3WgRq00Bh@dIU6KJ<H0KwU5wP06,0*1B
$IIAPB,A,A,,,N,,,,,1,303.5,M,,,A*27
$IIBWC,145211,,,,,304.5,T,303.5,M,57.50,N,1*1C
$IIDBT,172.0,f,52.44,M,28.66,F*18
$IIGLL,4456.213,N,01435.233,E,145211,A,A*50
$IIHDG,359.5,,,1,E*37
$IIHDM,359.5,M*28
$IIHDT,000.5,T*27
$IIRMB,A,,,,1,,,,,57.50,304.5,,,A*69
!AIVDM,1,1,,B,D02ad:07pDfpBhD9HBtT9H00003,2*44
$IIRMC,145211,A,4456.213,N,01435.233,E,7.6,002.0,060710,1,E,A*10
$IIRSA,0,A,,V*67
!AIVDM,1,1,,B,13S7i40P0011HuNIlgjh0?vD0D0D,0*70
$IIMWV,021.5,R,16.8,N,A*04
$IIMWV,041.0,T,9.3,N,A*34
!AIVDO,1,1,,,B3WgRq00Bh@dIU6KJ=d0wwUUwP06,0*6A
$IIVHW,000.0,T,359.0,M,8.59,N,15.91,K*62
$IIVPW,7.04,N,3.63,M*57
$IIVWR,018.0,R,16.8,N,8.7,M,31.1,K*43
$IIVWT,033.5,R,9.9,N,5.1,M,18.3,K*74
$IIGGA,145212,4456.215,N,01435.234,E,1,08,1,2,M,43,M,,*45
$IIMWD,035.0,T,034.0,M,9.8,N,5.1,M*40
$IIVLW,17536.5,N,184.39,N*79
$IIVTG,002.0,T,001.0,M,7.6,N,14.1,K*6F
$IIAPB,A,A,,,N,,,,,1,303.5,M,,,A*27
!AIVDO,1,1,,,B3WgRq00Bh@dIUVKJ?01KwV5wP06,0*02
$IIBWC,145213,,,,,304.5,T,303.5,M,57.50,N,1*1E
$IIDBT,182.6,f,55.67,M,30.43,F*19
$IIGLL,4456.217,N,01435.234,E,145213,A,A*51
$IIHDG,359.0,,,1,E*32
$IIHDM,359.0,M*2D
$IIHDT,000.0,T*22
$IIRMB,A,,,,1,,,,,57.50,304.5,,,A*69
!AIVDM,1,1,,B,402ad:0000Htt0vm1DJ41SW02PS:,0*4A
$IIRMC,145213,A,4456.217,N,01435.234,E,7.6,002.0,060710,1,E,A*11
$IIRSA,0,A,,V*67
$IIMWV,017.5,R,18.2,N,A*05
$IIMWV,032.5,T,10.1,N,A*0F
$IIVHW,000.0,T,359.0,M,8.79,N,16.28,K*61
$IIVPW,7.02,N,3.62,M*50
!AIVDO,1,1,,,B3WgRq00BP@dIV6KJ@D0wwVUwP06,0*0F
!AIVDM,1,1,,A,13Sg0:4P0P129<hIgRL;6?vJ0D0H,0*42
$IIVWR,020.0,R,18.2,N,9.4,M,33.7,K*4A
$IIVWT,037.0,R,10.4,N,5.4,M,19.3,K*44
!AIVDM,1,1,,B,13SdIG01Af12ws<IdfU5LbFJ0@8E,0*07
!AIVDM,1,1,,B,402ad:0000Htt0vm1DJ41SW02PS:,0*4A
$IIAPB,A,A,,,N,,,,,1,303.5,M,,,A*27
$IIBWC,145215,,,,,304.5,T,303.5,M,57.50,N,1*18
!AIVDO,1,1,,,B3WgRq00Bh@dIV6KJA`0kwW5wP06,0*6F
$IIDBT,181.4,f,55.30,M,30.23,F*1C
$IIGLL,4456.221,N,01435.234,E,145215,A,A*52
$IIHDG,359.0,,,1,E*32
$IIHDM,359.0,M*2D
$IIHDT,000.0,T*22
$IIRMB,A,,,,1,,,,,57.50,304.5,,,A*69
$IIRMC,145215,A,4456.221,N,01435.234,E,7.6,002.0,060710,1,E,A*12
$IIRSA,0,A,,V*67
$IIMWV,020.0,R,17.5,N,A*0C
$IIMWV,038.5,T,9.6,N,A*3A
$IIVHW,000.0,T,359.0,M,8.88,N,16.44,K*65
$IIVPW,6.95,N,3.58,M*56
!AIVDO,1,1,,,B3WgRq00Bh@dIVVKJBt0owWUwP06,0*7C
$IIVWR,014.0,R,17.5,N,9.0,M,32.4,K*43
$IIVWT,027.5,R,9.1,N,4.7,M,16.9,K*7A
!AIVDM,1,1,,A,13SgmB0P1R11A2FImjuKdwvN0D0M,0*5B
$IIGSA,,3,27,04,12,30,14,02,29,09,,,,,,1,*7F
$IIGSV,2,1,24,12,74,318,46,09,58,133,49,27,50,134,44,30,40,275,45*6B
!AIVDO,1,1,,,B3WgRq00C0@dIVVKJDCPcw`5wP06,0*2F
$IIGSV,2,2,24,14,31,304,44,02,23,118,44,04,23,074,42,29,13,209,41*64
$IIMTW,24.5,C*10
$IIZDA,145217,06,07,2010,,*59
$IIHVM,1,E*27
$IIZTG,145217,073356,1*54
$IIGGA,145217,4456.225,N,01435.234,E,1,08,1,2,M,43,M,,*43
$IIMWD,043.0,T,042.0,M,8.9,N,4.6,M*46
$IIVLW,17536.5,N,184.41,N*76
$IIVTG,002.0,T,001.0,M,7.6,N,14.1,K*6F
$IIAPB,A,A,,,N,,,,,1,303.5,M,,,A*27
!AIVDO,1,1,,,B3WgRq00BP@dIVVKJET13w`UwP06,0*09
$IIBWC,145218,,,,,304.5,T,303.5,M,57.50,N,1*15
$IIDBT,187.7,f,57.23,M,31.28,F*13
!AIVDM,1,1,,B,13S:`20P00141dHIU9gh0?vR00RV,0*61
$IIGLL,4456.228,N,01435.234,E,145218,A,A*56
$IIHDG,358.0,,,1,E*33
$IIHDM,358.0,M*2C
!AIVDM,1,1,,B,D02ad:21hDfp9HD9H0<T9H00003,2*39
$IIHDT,359.5,T*28
$IIRMB,A,,,,1,,,,,57.50,304.5,,,A*69
!AIVDM,1,1,,A,D02ad:1W8D9IadDfqWDT9H00001,2*66
$IIRMC,145218,A,4456.228,N,01435.234,E,7.6,002.0,060710,1,E,A*16
$IIRSA,0,A,,V*67
$IIMWV,022.5,R,17.2,N,A*0C
$IIMWV,032.0,T,9.3,N,A*30
!AIVDO,1,1,,,B3WgRq00Bh@dIWVKJH?PcwaUwP06,0*66
$IIVHW,359.5,T,358.5,M,8.59,N,15.91,K*6C
$IIVPW,7.28,N,3.75,M*5E
$IIVWR,016.5,R,17.2,N,8.9,M,31.9,K*45
!AIVDM,1,1,,B,D@2A`UR<`O6D,0*54
$IIVWT,030.5,R,10.1,N,5.2,M,18.7,K*40
$IIAPB,A,A,,,N,,,,,1,303.5,M,,,A*27
$IIBWC,145219,,,,,304.5,T,303.5,M,57.50,N,1*14
!AIVDM,1,1,,A,13S7UF0P00128phIg?i@0?vT0<0D,0*7D
$IIDBT,194.1,f,59.18,M,32.35,F*1E
$IIGLL,4456.230,N,01435.234,E,145220,A,A*54
$IIHDG,358.5,,,1,E*36
!AIVDM,1,1,,A,4@2A`UQuak>lB13d20IWT2700<1A,0*4D
$IIHDM,358.5,M*29
$IIHDT,359.5,T*28
$IIRMB,A,,,,1,,,,,57.50,304.5,,,A*69
!AIVDM,1,1,,B,4@2A`PQuak>lC10f5hIhc`7008;f,0*67
!AIVDO,1,1,,,B3WgRq00Bh@dIWVKJISP;wb5wP06,0*30
$IIRMC,145220,A,4456.232,N,01435.234,E,7.5,001.0,060710,1,E,A*16
$IIRSA,0,A,,V*67
$IIMWV,017.0,R,16.4,N,A*08
$IIMWV,035.0,T,8.4,N,A*31
$IIVHW,000.0,T,359.0,M,8.77,N,16.24,K*63
$IIVPW,7.18,N,3.70,M*58
$IIVWR,017.0,R,16.4,N,8.5,M,30.4,K*46
$IIVWT,035.0,R,8.4,N,4.3,M,15.6,K*70
$IIAPB,A,A,,,N,,,,,1,303.5,M,,,A*27
$IIBWC,145221,,,,,304.5,T,303.5,M,57.50,N,1*1F
$IIDBT,196.0,f,59.76,M,32.66,F*13
$IIGLL,4456.234,N,01435.234,E,145221,A,A*51
$IIHDG,358.0,,,1,E*33
!AIVDO,1,1,,,B3WgRq00Bh@dIWVKJJl1KwbUwP06,0*7D
$IIHDM,358.0,M*2C
$IIHDT,359.0,T*2D
$IIRMB,A,,,,1,,,,,57.50,304.5,,,A*69
$IIRMC,145221,A,4456.234,N,01435.234,E,7.6,001.0,060710,1,E,A*12
$IIRSA,1,A,,V*66
$IIMWV,020.5,R,17.3,N,A*0F
$IIMWV,039.0,T,9.5,N,A*3D
$IIVHW,359.0,T,358.0,M,8.77,N,16.24,K*6D
$IIVPW,6.96,N,3.59,M*54
$IIVWR,019.5,R,17.3,N,8.9,M,32.0,K*41
$IIVWT,037.5,R,9.5,N,4.9,M,17.6,K*7F
!AIVDO,1,1,,,B3WgRq00BP@dI`6KJL80kwc5wP06,0*00
$IIGGA,145222,4456.236,N,01435.234,E,1,08,1,1,M,43,M,,*44
$IIMWD,036.5,T,035.5,M,9.4,N,4.8,M*46
$IIVLW,17536.5,N,184.41,N*76
$IIVTG,001.0,T,000.0,M,7.5,N,13.9,K*61
$IIAPB,A,A,,,N,,,,,1,303.5,M,,,A*27
$IIBWC,145223,,,,,304.5,T,303.5,M,57.50,N,1*1D
$IIDBT,201.7,f,61.49,M,33.61,F*18
$IIGLL,4456.238,N,01435.234,E,145223,A,A*5F
$IIHDG,358.0,,,1,E*33
$IIHDM,358.0,M*2C
$IIHDT,359.0,T*2D
!AIVDO,1,1,,,B3WgRq00C0@dI`6KJMOOowcUwP06,0*0C
!AIVDM,1,1,,B,D02ad:1pHDfr3@D9J3LT9H00003,2*2A
$IIRMB,A,,,,1,,,,,57.50,304.5,,,A*69
!AIVDM,1,1,,A,13SdIG0vAf1303DIdea5LrFf0<07,0*30
!AIVDM,1,1,,A,D02ad:1MhD9IPDDfqMtT9H00003,2*15
$IIRMC,145223,A,4456.238,N,01435.234,E,7.5,001.0,060710,1,E,A*1F
$IIRSA,1,A,,V*66
$IIMWV,015.0,R,16.9,N,A*07
$IIMWV,030.0,T,8.7,N,A*37
$IIVHW,359.5,T,358.5,M,8.77,N,16.24,K*6D
$IIVPW,7.60,N,3.92,M*5B
$IIVWR,015.0,R,16.9,N,8.7,M,31.3,K*4D
$IIVWT,030.0,R,8.7,N,4.5,M,16.1,K*74
!AIVDO,1,1,,,B3WgRq00Bh@dIWVKJNoPGwd5wP06,0*71
$IIAPB,A,A,,,N,,,,,1,303.5,M,,,A*27
$IIBWC,145225,,,,,304.5,T,303.5,M,57.50,N,1*1B
!AIVDM,1,1,,B,13Sg0:4P0R1298<IgRNrnwvh0@>U,0*7D
$IIDBT,201.7,f,61.49,M,33.61,F*18
$IIGLL,4456.242,N,01435.234,E,145225,A,A*54
$IIHDG,358.5,,,1,E*36
$IIHDM,358.5,M*29
$IIHDT,359.0,T*2D
$IIRMB,A,,,,1,,,,,57.50,304.5,,,A*69
!AIVDO,1,1,,,B3WgRq00Bh@dIWVKJP80?wdUwP06,0*40
$IIRMC,145225,A,4456.242,N,01435.234,E,7.5,001.0,060710,1,E,A*14
$IIRSA,1,A,,V*66
$IIMWV,018.0,R,18.0,N,A*0D
$IIMWV,034.0,T,9.9,N,A*3C
$IIVHW,359.5,T,358.5,M,8.90,N,16.48,K*6E
$IIVPW,7.38,N,3.80,M*55
$IIVWR,018.0,R,18.0,N,9.3,M,33.3,K*40
$IIVWT,034.0,R,9.9,N,5.1,M,18.3,K*76
!AIVDO,1,1,,,B3WgRq00C0@dIWVKJQOPcwe5wP06,0*32
$IIGSA,,3,27,04,12,30,14,02,29,09,,,,,,1,*7F
$IIGSV,2,1,24,12,74,318,46,09,58,133,47,27,50,134,44,30,40,275,45*65
$IIGSV,2,2,24,14,31,304,42,02,23,118,43,04,23,074,43,29,13,209,40*65
$IIMTW,24.4,C*11
$IIZDA,145227,06,07,2010,,*5A
$IIHVM,1,E*27
$IIZTG,145227,073356,1*57
!AIVDM,1,1,,B,D02ad:1g0DfqqpD9Ir4T9H00002,2*0F
!AIVDO,1,1,,,B3WgRq00Bh@dIWVKJRkPwweUwP06,0*38
$IIGGA,145227,4456.246,N,01435.234,E,1,08,1,1,M,43,M,,*46
!AIVDM,1,1,,A,D02ad:1DHD9IFtDfqDTT9H00003,2*33
$IIMWD,038.0,T,037.0,M,8.6,N,4.4,M*45
$IIVLW,17536.5,N,184.43,N*74
$IIVTG,000.0,T,359.0,M,7.6,N,14.1,K*63
$IIAPB,A,A,,,N,,,,,1,303.5,M,,,A*27
$IIBWC,145228,,,,,304.5,T,303.5,M,57.50,N,1*16
$IIDBT,207.2,f,63.17,M,34.53,F*14
!AIVDM,1,1,,B,13S7UF0P00128phIg?i@0?vn0<0D,0*44
$IIGLL,4456.248,N,01435.234,E,145228,A,A*53
$IIHDG,359.0,,,1,E*32
!AIVDO,1,1,,,B3WgRq00C0@dIWVKJT403wf5wP06,0*7F
$IIHDM,359.0,M*2D
$IIHDT,000.0,T*22
$IIRMB,A,,,,1,,,,,57.50,304.5,,,A*69
$IIRMC,145228,A,4456.248,N,01435.234,E,7.6,000.0,060710,1,E,A*11
$IIRSA,2,A,,V*65
$IIMWV,013.5,R,17.2,N,A*0E
$IIMWV,026.5,T,8.9,N,A*3B
$IIVHW,000.5,T,359.5,M,8.71,N,16.13,K*61
$IIVPW,7.83,N,4.04,M*5E
$IIVWR,013.0,R,17.2,N,8.9,M,31.9,K*45
$IIVWT,027.0,R,8.0,N,4.1,M,14.8,K*7A
$IIAPB,A,A,,,N,,,,,1,303.5,M,,,A*27
!AIVDO,1,1,,,B3WgRq00Bh@dIWVKJUKPKwfUwP06,0*20
$IIBWC,145229,,,,,304.5,T,303.5,M,57.50,N,1*17
$IIDBT,210.0,f,64.02,M,35.00,F*14
$IIGLL,4456.250,N,01435.234,E,145230,A,A*53
$IIHDG,000.0,,,1,E*3D
$IIHDM,000.0,M*22
$IIHDT,001.5,T*26
$IIRMB,A,,,,1,,,,,57.50,304.5,,,A*69
!AIVDM,1,1,,B,4@2A`UQuak>lL13d20IWT2700<1A,0*40
!AIVDM,1,1,,A,4@2A`PQuak>lM10f5hIhc`7005k@,0*11
$IIRMC,145230,A,4456.252,N,01435.234,E,7.6,000.0,060710,1,E,A*13
$IIRSA,1,A,,V*66
$IIMWV,016.5,R,16.6,N,A*0E
$IIMWV,032.5,T,8.8,N,A*3F
!AIVDO,1,1,,,B3WgRq00Bh@dIWVKJVd0swg5wP06,0*35
!AIVDM,1,1,,B,13S7i40P0011HuNIlgjh0?vr0L0D,0*4E
$IIVHW,001.0,T,000.0,M,8.47,N,15.69,K*64
$IIVPW,7.14,N,3.68,M*5D
$IIVWR,016.5,R,16.6,N,8.6,M,30.7,K*40
$IIVWT,032.5,R,8.8,N,4.5,M,16.3,K*7E
$IIAPB,A,A,,,N,,,,,1,303.5,M,,,A*27
$IIBWC,145231,,,,,304.5,T,303.5,M,57.50,N,1*1E
$IIDBT,210.7,f,64.24,M,35.11,F*17
$IIGLL,4456.255,N,01435.234,E,145231,A,A*57
$IIHDG,000.5,,,1,E*38
$IIHDM,000.5,M*27
$IIHDT,001.5,T*26
$IIRMB,A,,,,1,,,,,57.50,304.5,,,A*69
!AIVDM,1,1,,B,D02ad:1U`DfqhPD9IhdT9H00002,2*1E
!AIVDO,1,1,,,B3WgRq00Bh@dI`6KJWt1CwgUsP06,0*26
$IIRMC,145231,A,4456.255,N,01435.234,E,7.6,000.0,060710,1,E,A*15
$IIRSA,1,A,,V*66
$IIMWV,014.0,R,16.3,N,A*0C
$IIMWV,029.5,T,8.0,N,A*3D
$IIVHW,002.0,T,001.0,M,8.79,N,16.28,K*6D
$IIVPW,7.65,N,3.94,M*58
$IIVWR,012.5,R,16.3,N,8.4,M,30.2,K*46
$IIVWT,026.5,R,7.9,N,4.1,M,14.6,K*76
$IIGGA,145232,4456.257,N,01435.234,E,1,08,1,1,M,43,M,,*42
$IIMWD,027.5,T,026.5,M,8.2,N,4.2,M*49
!AIVDO,1,1,,,B3WgRq00Bh@dI`VKJa@0owh5wP06,0*02
$IIVLW,17536.5,N,184.43,N*74
$IIVTG,001.0,T,000.0,M,7.6,N,14.1,K*6D
$IIAPB,A,A,,,N,,,,,1,303.5,M,,,A*27
!AIVDM,1,1,,B,13SdIG01Ag130:lIddlULrG005k@,0*4A
$IIBWC,145233,,,,,304.5,T,303.5,M,57.50,N,1*1C
$IIDBT,215.6,f,65.73,M,35.93,F*1A
$IIGLL,4456.259,N,01435.234,E,145233,A,A*59
$IIHDG,002.0,,,1,E*3F
$IIHDM,002.0,M*20
$IIHDT,003.0,T*21
$IIRMB,A,,,,1,,,,,57.50,304.5,,,A*69
!AIVDO,1,1,,,B3WgRq00Bh@dIa6KJbT1GwhUwP06,0*3D
$IIRMC,145233,A,4456.259,N,01435.234,E,7.6,001.0,060710,1,E,A*1A
$IIRSA,1,A,,V*66
$IIMWV,013.5,R,16.7,N,A*0A
!AIVDM,1,1,,A,D@2A`UQ8hNfp,0*3D
$IIMWV,027.5,T,8.4,N,A*37
$IIVHW,003.0,T,002.0,M,8.71,N,16.13,K*6F
$IIVPW,7.73,N,3.98,M*53
$IIVWR,012.5,R,16.7,N,8.6,M,30.9,K*4B
$IIVWT,025.5,R,8.4,N,4.3,M,15.6,K*74
!AIVDO,1,1,,,B3WgRq00Bh@dIaVKJcp2Gwi5wP06,0*1A
!AIVDM,1,1,,B,402ad:0000Htt0vm1DJ41SW02PS:,0*4A
$IIAPB,A,A,,,N,,,,,1,303.5,M,,,A*27
$IIBWC,145235,,,,,304.5,T,303.5,M,57.50,N,1*1A
$IIDBT,217.1,f,66.19,M,36.18,F*10
$IIGLL,4456.263,N,01435.234,E,145235,A,A*56
$IIHDG,002.5,,,1,E*3A
$IIHDM,002.5,M*25
$IIHDT,003.5,T*24
$IIRMB,A,,,,1,,,,,57.50,304.5,,,A*69
$IIRMC,145235,A,4456.263,N,01435.234,E,7.6,001.0,060710,1,E,A*15
!AIVDO,1,1,,,B3WgRq00Bh@dIbVKJe<23wiUwP06,0*47
$IIRSA,1,A,,V*66
$IIMWV,013.5,R,18.1,N,A*02
$IIMWV,025.0,T,9.8,N,A*3D
!AIVDM,1,1,,A,381:JQU000129m0IscC7v3?9P000,0*31
$IIVHW,003.0,T,002.0,M,8.63,N,15.98,K*6C
$IIVPW,7.82,N,4.03,M*58
$IIVWR,013.5,R,18.1,N,9.3,M,33.5,K*49
$IIVWT,025.0,R,9.8,N,5.1,M,18.1,K*75
!AIVDO,1,1,,,B3WgRq00Bh@dIcVKJfP2Swj5wP06,0*2A
$IIGSA,,3,27,04,12,30,14,02,29,09,,,,,,1,*7F
$IIGSV,2,1,24,12,74,318,47,09,58,133,47,27,50,134,45,30,40,275,43*63
$IIGSV,2,2,24,14,31,304,43,02,23,118,43,04,23,074,44,29,13,209,37*63
$IIMTW,24.4,C*11
!AIVDM,1,1,,A,13SgmB0P1Q11@e2Iml:;mww808Ei,0*10
$IIZDA,145237,06,07,2010,,*5B
$IIHVM,1,E*27
$IIZTG,145237,073356,1*56
$IIGGA,145237,4456.267,N,01435.235,E,1,08,1,1,M,43,M,,*45
$IIMWD,034.5,T,033.5,M,10.0,N,5.2,M*75
$IIVLW,17536.5,N,184.46,N*71
!AIVDO,1,1,,,B3WgRq00Bh@dIe6KJgl3SwjUwP06,0*10
!AIVDO,1,1,,A,B3WgRq00Bh@dIe6KJgl3SwjUoP06,0*49
$IIVTG,002.0,T,001.0,M,7.6,N,14.1,K*6F
$IIAPB,A,A,,,N,,,,,1,303.5,M,,,A*27
$IIBWC,145238,,,,,304.5,T,303.5,M,57.50,N,1*17
$IIDBT,221.2,f,67.44,M,36.86,F*18
$IIGLL,4456.269,N,01435.235,E,145238,A,A*50
$IIHDG,003.0,,,1,E*3E
!AIVDM,1,1,,A,13S7UF0P00128phIg?i@0?w:0@FL,0*10
$IIHDM,003.0,M*21
$IIHDT,004.0,T*26
$IIRMB,A,,,,1,,,,,57.50,304.5,,,A*69
!AIVDM,1,1,,B,13S:`20P00141dHIU9gh0?w:08FS,0*11
$IIRMC,145238,A,4456.269,N,01435.235,E,7.6,002.0,060710,1,E,A*10
$IIRSA,1,A,,V*66
!AIVDO,1,1,,,B3WgRq00C0@dIf6KJi42;wk5wP06,0*14
$IIMWV,008.5,R,18.3,N,A*0A
$IIMWV,016.0,T,9.7,N,A*32
$IIVHW,004.0,T,003.0,M,8.77,N,16.24,K*6B
$IIVPW,7.85,N,4.05,M*59
$IIVWR,014.0,R,18.3,N,9.4,M,33.9,K*42
$IIVWT,026.5,R,10.0,N,5.2,M,18.5,K*44
$IIAPB,A,A,,,N,,,,,1,303.5,M,,,A*27
$IIBWC,145239,,,,,304.5,T,303.5,M,57.50,N,1*16
$IIDBT,221.7,f,67.59,M,36.95,F*13
$IIGLL,4456.271,N,01435.235,E,145240,A,A*56
!AIVDO,1,1,,,B3WgRq00Bh@dIg6KJjL2swkUwP06,0*1F
!AIVDM,1,1,,B,13Srb@8P00141spIU<f00?w<08GG,0*41
$IIHDG,003.5,,,1,E*3B
$IIHDM,004.0,M*26
$IIHDT,005.0,T*27
!AIVDM,1,1,,A,4@2A`UQuak>lV13d20IWT2700<1B,0*5A
!AIVDM,1,1,,B,4@2A`PQuak>lW10f5hIhc`7005k@,0*08
$IIRMB,A,,,,1,,,,,57.50,304.5,,,A*69
$IIRMC,145240,A,4456.273,N,01435.235,E,7.6,003.0,060710,1,E,A*15
$IIRSA,1,A,,V*66
$IIMWV,012.5,R,17.8,N,A*05
$IIMWV,023.5,T,9.5,N,A*33
$IIVHW,005.0,T,004.0,M,8.47,N,15.69,K*64
$IIVPW,7.77,N,4.01,M*50
$IIVWR,012.5,R,17.8,N,9.2,M,33.0,K*4A
$IIVWT,023.5,R,9.7,N,5.0,M,18.0,K*79
!AIVDO,1,1,,,B3WgRq00C0@dIhVKJkh3swl5wP06,0*6A
$IIAPB,A,A,,,N,,,,,1,303.5,M,,,A*27
$IIBWC,145240,,,,,304.5,T,303.5,M,57.50,N,1*18
$IIDBT,224.8,f,68.54,M,37.46,F*14
$IIGLL,4456.276,N,01435.235,E,145240,A,A*51
$IIHDG,004.0,,,1,E*39
$IIHDM,004.0,M*26
$IIHDT,005.0,T*27
$IIRMB,A,,,,1,,,,,57.50,304.5,,,A*69
$IIRMC,145240,A,4456.276,N,01435.235,E,7.6,003.0,060710,1,E,A*10
$IIRSA,1,A,,V*66
$IIMWV,010.5,R,18.7,N,A*07
$IIMWV,019.5,T,10.2,N,A*05
!AIVDO,1,1,,,B3WgRq00C0@dIj6KJm43CwlUwP06,0*02
$IIVHW,004.0,T,003.0,M,8.71,N,16.13,K*69
$IIVPW,8.21,N,4.23,M*5C
$IIVWR,015.0,R,18.7,N,9.6,M,34.6,K*4D
$IIVWT,027.5,R,10.5,N,5.4,M,19.4,K*46
$IIGGA,145241,4456.278,N,01435.236,E,1,08,1,0,M,43,M,,*48
$IIMWD,034.0,T,033.0,M,8.8,N,4.5,M*42
$IIVLW,17536.5,N,184.46,N*71
$IIVTG,004.0,T,003.0,M,7.6,N,14.1,K*6B
$IIAPB,A,A,,,N,,,,,1,303.5,M,,,A*27
!AIVDO,1,1,,,B3WgRq00Bh@dIkVKJnH4Owm5wP06,0*2F
$IIBWC,145242,,,,,304.5,T,303.5,M,57.50,N,1*1A
$IIDBT,224.8,f,68.54,M,37.46,F*14
$IIGLL,4456.280,N,01435.236,E,145242,A,A*59
$IIHDG,003.0,,,1,E*3E
$IIHDM,003.0,M*21
$IIHDT,004.0,T*26
$IIRMB,A,,,,1,,,,,57.50,304.5,,,A*69
!AIVDM,1,1,,B,D02ad:19PDfqDHD9IDTT9H00003,2*6B
$IIRMC,145242,A,4456.280,N,01435.236,E,7.6,004.0,060710,1,E,A*1F
$IIRSA,0,A,,V*67
$IIMWV,012.0,R,17.5,N,A*0D
!AIVDM,1,1,,A,13SdIG00ie130DlIdcpUMrGF0<07,0*55
$IIMWV,023.0,T,9.2,N,A*31
$IIVHW,004.5,T,003.5,M,8.59,N,15.91,K*6A
!AIVDO,1,1,,,B3WgRq00C0@dImVKJod4CwmUwP06,0*31
$IIVPW,7.91,N,4.08,M*51
$IIVWR,012.0,R,17.5,N,9.0,M,32.4,K*45
$IIVWT,010.5,R,8.9,N,4.6,M,16.5,K*7A
$IIAPB,A,A,,,N,,,,,1,303.5,M,,,A*27
$IIBWC,145244,,,,,304.5,T,303.5,M,57.50,N,1*1C
!AIVDO,1,1,,,B3WgRq00Bh@dIo6KJpt3Cwn5wP06,0*61
$IIDBT,225.5,f,68.75,M,37.58,F*14
$IIGLL,4456.284,N,01435.237,E,145244,A,A*5A
$IIHDG,003.0,,,1,E*3E
$IIHDM,003.0,M*21
$IIHDT,004.0,T*26
$IIRMB,A,,,,1,,,,,57.50,304.5,,,A*69
$IIRMC,145244,A,4456.284,N,01435.237,E,7.6,004.0,060710,1,E,A*1C
!AIVDM,1,1,,A,402A`S1uak>ld13@4tInBW7005k@,0*03
$IIRSA,0,A,,V*67
$IIMWV,006.5,R,17.3,N,A*0B
$IIMWV,013.5,T,8.4,N,A*30
$IIVHW,004.5,T,003.5,M,9.02,N,16.70,K*69
$IIVPW,8.77,N,4.52,M*59
$IIVWR,006.5,R,17.3,N,8.9,M,32.0,K*4F
$IIVWT,013.5,R,8.4,N,4.3,M,15.6,K*71
!AIVDO,1,1,,,B3WgRq00Bh@dIpVKJr@37wnUwP06,0*3C
$IIGSA,,3,27,04,12,30,14,02,29,09,,,,,,1,*7F
$IIGSV,2,1,24,12,74,318,48,09,58,133,47,27,50,134,44,30,40,275,44*6A
$IIGSV,2,2,24,14,31,304,44,02,23,118,42,04,23,074,44,29,13,209,37*65
!AIVDO,1,1,,,B3WgRq00BP@dIr6KJsT4cwo5wP06,0*41
$IIMTW,24.4,C*11
$IIZDA,145246,06,07,2010,,*5D
$IIHVM,1,E*27
$IIZTG,145246,073356,1*50
$IIGGA,145246,4456.288,N,01435.237,E,1,08,1,0,M,43,M,,*41
$IIMWD,026.5,T,025.5,M,7.9,N,4.1,M*4C
$IIVLW,17536.5,N,184.48,N*7F
$IIVTG,005.0,T,004.0,M,7.6,N,14.1,K*6D
$IIAPB,A,A,,,N,,,,,1,303.5,M,,,A*27
!AIVDM,1,1,,B,13SgmB0P1Q11@SHImltcnOwN0<0M,0*51
$IIBWC,145247,,,,,304.5,T,303.5,M,57.50,N,1*1F
!AIVDO,1,1,,,B3WgRq00Bh@dIt6KJtl4gwoUwP06,0*24
$IIDBT,227.8,f,69.45,M,37.96,F*1B
$IIGLL,4456.290,N,01435.238,E,145247,A,A*53
$IIHDG,003.0,,,1,E*3E
$IIHDM,003.0,M*21
$IIHDT,004.0,T*26
$IIRMB,A,,,,1,,,,,57.50,304.5,,,A*69
$IIRMC,145247,A,4456.290,N,01435.238,E,7.6,005.0,060710,1,E,A*14
$IIRSA,0,A,,V*67
$IIMWV,006.5,R,18.4,N,A*03
$IIMWV,012.5,T,9.6,N,A*32
$IIVHW,004.0,T,003.0,M,8.88,N,16.44,K*6D
$IIVPW,8.56,N,4.41,M*58
$IIVWR,008.0,R,18.4,N,9.5,M,34.1,K*46
!AIVDO,1,1,,,B3WgRq00Bh@dIuVKJv42wwp5wP06,0*76
$IIVWT,015.5,R,9.6,N,4.9,M,17.8,K*72
!AIVDM,1,1,,B,D@2A`UPsDNfp,0*58
$IIAPB,A,A,,,N,,,,,1,303.5,M,,,A*27
$IIBWC,145248,,,,,304.5,T,303.5,M,57.50,N,1*10
$IIDBT,228.2,f,69.57,M,38.03,F*1E
$IIGLL,4456.292,N,01435.238,E,145249,A,A*5F
$IIHDG,003.0,,,1,E*3E
$IIHDM,003.0,M*21
$IIHDT,004.0,T*26
$IIRMB,A,,,,1,,,,,57.50,304.5,,,A*69
!AIVDM,1,1,,B,13S7UF0P00128phIg?i@0?wP0D0D,0*03
!AIVDM,1,1,,B,4@2A`UQuak>lh13d20IWT2700<1B,0*67
!AIVDM,1,1,,A,4@2A`PQuak>li10f5hIhc`700<1?,0*19
$IIRMC,145249,A,4456.294,N,01435.238,E,7.6,005.0,060710,1,E,A*1E
$IIRSA,0,A,,V*67
!AIVDO,1,1,,,B3WgRq00Bh@dIw6KJwH3cwpUwP06,0*1C
$IIMWV,008.5,R,16.4,N,A*03
$IIMWV,018.5,T,7.9,N,A*39
$IIVHW,003.0,T,002.0,M,9.45,N,17.50,K*6F
$IIVPW,8.25,N,4.25,M*5E
$IIVWR,008.5,R,17.2,N,8.9,M,31.9,K*4A
$IIVWT,017.0,R,8.7,N,4.5,M,16.1,K*71
$IIAPB,A,A,,,N,,,,,1,303.5,M,,,A*27
$IIBWC,145250,,,,,304.5,T,303.5,M,57.50,N,1*19
$IIDBT,227.9,f,69.48,M,37.98,F*19
$IIGLL,4456.296,N,01435.238,E,145250,A,A*53
!AIVDO,1,1,,,B3WgRq00C0@dJ0VKK0d3swq5wP06,0*7A
$IIHDG,002.0,,,1,E*3F
$IIHDM,002.0,M*20
$IIHDT,003.0,T*21
$IIRMB,A,,,,1,,,,,57.50,304.5,,,A*69
!AIVDM,1,1,,B,D02ad:0nhDfq1`D9I1lT9H00000,2*16
$IIRMC,145250,A,4456.296,N,01435.238,E,7.6,005.0,060710,1,E,A*14
!AIVDM,1,1,,B,13S7i40P0011HuNIlgjh0?wT00Ru,0*46
$IIRSA,0,A,,V*67
$IIMWV,010.5,R,16.9,N,A*07
$IIMWV,021.5,T,8.3,N,A*36
$IIVHW,003.5,T,002.5,M,8.88,N,16.44,K*6B
$IIVPW,8.26,N,4.26,M*5E
$IIVWR,010.5,R,16.9,N,8.7,M,31.3,K*4D
$IIVWT,017.5,R,8.2,N,4.2,M,15.2,K*76
!AIVDO,1,1,,,B3WgRq00Bh@dJ1VKK243CwqUwP06,0*20
$IIGGA,145251,4456.298,N,01435.239,E,1,08,1,0,M,43,M,,*48
$IIMWD,020.5,T,019.5,M,8.4,N,4.3,M*45
$IIVLW,17536.5,N,184.48,N*7F
$IIVTG,005.0,T,004.0,M,7.6,N,14.1,K*6D
$IIAPB,A,A,,,N,,,,,1,303.5,M,,,A*27
$IIBWC,145252,,,,,304.5,T,303.5,M,57.50,N,1*1B
$IIDBT,229.4,f,69.94,M,38.23,F*14
$IIGLL,4456.301,N,01435.239,E,145252,A,A*5F
$IIHDG,002.5,,,1,E*3A
$IIHDM,002.5,M*25
$IIHDT,003.0,T*21
!AIVDO,1,1,,,B3WgRq00C0@dJ36KK3H2cwr5wP06,0*24
$IIRMB,A,,,,1,,,,,57.50,304.5,,,A*69
$IIRMC,145252,A,4456.301,N,01435.239,E,7.6,005.0,060710,1,E,A*18
$IIRSA,0,A,,V*67
$IIMWV,009.5,R,17.7,N,A*00
!AIVDM,1,1,,B,13SdIG00Qg130M@IdbtUL:Gb0D07,0*59
$IIMWV,018.0,T,9.3,N,A*38
$IIVHW,003.0,T,002.0,M,8.57,N,15.87,K*65
$IIVPW,8.15,N,4.20,M*58
$IIVWR,009.5,R,17.7,N,9.1,M,32.8,K*45
$IIVWT,018.0,R,9.3,N,4.8,M,17.2,K*74
!AIVDO,1,1,,,B3WgRq00Bh@dJ46KK4d3cwrUwP06,0*30
$IIAPB,A,A,,,N,,,,,1,303.5,M,,,A*27
$IIBWC,145254,,,,,304.5,T,303.5,M,57.50,N,1*1D
!AIVDM,1,1,,B,402ad:0000Htt0vm1DJ41SW02PS:,0*4A
$IIDBT,229.4,f,69.94,M,38.23,F*14
$IIGLL,4456.305,N,01435.240,E,145254,A,A*53
$IIHDG,002.0,,,1,E*3F
$IIHDM,002.0,M*20
$IIHDT,003.0,T*21
!AIVDO,1,1,,,B3WgRq00Bh@dJ76KK7D2kwsUwP06,0*18
!AIVDM,1,1,,A,13Sg0:4P0T128rnIgRPbS?wd08PH,0*1C
$IIRMB,A,,,,1,,,,,57.50,304.5,,,A*69
$IIRMC,145254,A,4456.305,N,01435.240,E,7.6,005.0,060710,1,E,A*14
$IIRSA,0,A,,V*67
$IIMWV,010.5,R,17.1,N,A*0E
$IIMWV,021.0,T,8.7,N,A*37
$IIVHW,002.0,T,001.0,M,8.63,N,15.98,K*6E
$IIVPW,8.06,N,4.15,M*5C
$IIVWR,010.5,R,17.1,N,8.8,M,31.7,K*4F
$IIVWT,021.0,R,8.7,N,4.5,M,16.1,K*74
!AIVDO,1,1,,,B3WgRq00Bh@dJ8VKK8`3Wwt5wP06,0*06
$IIGSA,,3,27,04,12,30,14,02,29,09,,,,,,1,*7F
$IIGSV,2,1,24,12,74,318,47,09,58,133,47,27,50,134,43,30,40,275,44*62
$IIGSV,2,2,24,14,31,304,43,02,23,118,42,04,23,074,43,29,13,209,41*64
$IIMTW,24.4,C*11
$IIZDA,145256,06,07,2010,,*5C
$IIHVM,1,E*27
$IIZTG,145256,073356,1*51
!AIVDO,1,1,,,B3WgRq00C0@dJ9VKK9t1swtUwP06,0*0D
$IIGGA,145256,4456.309,N,01435.240,E,1,08,1,0,M,43,M,,*48
$IIMWD,015.5,T,014.5,M,8.2,N,4.2,M*49
$IIVLW,17536.6,N,184.51,N*74
!AIVDM,1,1,,B,13S:`20P00141dHIU9gh0?wh0D0K,0*51
$IIVTG,005.0,T,004.0,M,7.6,N,14.1,K*6D
$IIAPB,A,A,,,N,,,,,1,303.5,M,,,A*27
$IIBWC,145257,,,,,304.5,T,303.5,M,57.50,N,1*1E
$IIDBT,230.8,f,70.37,M,38.46,F*12
$IIGLL,4456.311,N,01435.240,E,145257,A,A*55
!AIVDO,1,1,,,B3WgRq00Bh@dJ:VKK;@1Wwu5wP06,0*24
$IIHDG,001.0,,,1,E*3C
$IIHDM,001.0,M*23
$IIHDT,002.0,T*20
$IIRMB,A,,,,1,,,,,57.50,304.5,,,A*69
$IIRMC,145257,A,4456.311,N,01435.240,E,7.6,005.0,060710,1,E,A*12
$IIRSA,0,A,,V*67
$IIMWV,009.0,R,16.9,N,A*0A
$IIMWV,019.0,T,7.9,N,A*3D
$IIVHW,002.0,T,001.0,M,9.13,N,16.91,K*62
$IIVPW,8.63,N,4.45,M*5A
$IIVWR,012.0,R,16.9,N,8.7,M,31.3,K*4A
$IIVWT,025.5,R,8.1,N,4.2,M,15.0,K*76
!AIVDO,1,1,,,B3WgRq00C0@dJ;VKK<`2SwuUwP06,0*3C
$IIAPB,A,A,,,N,,,,,1,303.5,M,,,A*27
$IIBWC,145258,,,,,304.5,T,303.5,M,57.50,N,1*11
!AIVDM,1,1,,B,D02ad:0T0DfpfpD9Hg4T9H00001,2*3C
$IIDBT,230.8,f,70.37,M,38.46,F*12
$IIGLL,4456.313,N,01435.241,E,145259,A,A*58
!AIVDM,1,1,,A,13S7UF0P00128phIg?i@0?wl00RN,0*20
$IIHDG,001.0,,,1,E*3C
$IIHDM,001.0,M*23
$IIHDT,002.0,T*20
$IIRMB,A,,,,1,,,,,57.50,304.5,,,A*69
$IIRMC,145259,A,4456.315,N,01435.241,E,7.6,004.0,060710,1,E,A*18
!AIVDM,1,1,,A,4@2A`UQuak>lr13d20IWT2700800,0*09
!AIVDM,1,1,,B,4@2A`PQuak>ls10f5hIhc`700D1@,0*07
$IIRSA,1,A,,V*66
$IIMWV,005.5,R,17.9,N,A*02
$IIMWV,010.5,T,9.3,N,A*35
!AIVDO,1,1,,,B3WgRq00Bh@dJ<VKK=t1gwP5wP06,0*05
$IIVHW,002.0,T,001.0,M,8.63,N,15.98,K*6E
$IIVPW,8.47,N,4.37,M*59
$IIVWR,005.5,R,16.9,N,8.7,M,31.3,K*49
$IIVWT,011.5,R,8.2,N,4.2,M,15.2,K*70
$IIAPB,A,A,,,N,,,,,1,303.5,M,,,A*27
$IIBWC,145300,,,,,304.5,T,303.5,M,57.50,N,1*1D
$IIDBT,230.8,f,70.37,M,38.46,F*12
$IIGLL,4456.318,N,01435.241,E,145300,A,A*5E
$IIHDG,000.5,,,1,E*38
$IIHDM,000.5,M*27
$IIHDT,001.5,T*26
!AIVDO,1,1,,,B3WgRq00Bh@dJ=6KK?@1gwPUwP06,0*32
$IIRMB,A,,,,1,,,,,57.50,304.5,,,A*69
$IIRMC,145300,A,4456.318,N,01435.241,E,7.6,004.0,060710,1,E,A*18
$IIRSA,0,A,,V*67
$IIMWV,010.5,R,16.3,N,A*0D
$IIMWV,023.5,T,7.5,N,A*3D
$IIVHW,002.0,T,001.0,M,9.13,N,16.91,K*62
$IIVPW,8.37,N,4.31,M*58
$IIVWR,010.5,R,16.3,N,8.4,M,30.2,K*44
$IIVWT,023.5,R,7.5,N,3.9,M,13.9,K*78
$IIGGA,145301,4456.320,N,01435.241,E,1,08,1,2,M,43,M,,*43
$IIMWD,017.0,T,016.0,M,8.0,N,4.1,M*48
$IIVLW,17536.6,N,184.51,N*74
$IIVTG,004.0,T,003.0,M,7.6,N,14.1,K*6B
!AIVDO,1,1,,,B3WgRq00C0@dJ=VKK@T1owQ5wP06,0*09
$IIAPB,A,A,,,N,,,,,1,303.5,M,,,A*27
$IIBWC,145302,,,,,304.5,T,303.5,M,57.50,N,1*1F
$IIDBT,231.5,f,70.58,M,38.58,F*18
$IIGLL,4456.322,N,01435.241,E,145302,A,A*55
$IIHDG,000.5,,,1,E*38
$IIHDM,000.5,M*27
$IIHDT,001.5,T*26
$IIRMB,A,,,,1,,,,,57.50,304.5,,,A*69
$IIRMC,145302,A,4456.322,N,01435.241,E,7.6,004.0,060710,1,E,A*13
$IIRSA,0,A,,V*67
!AIVDO,1,1,,,B3WgRq00Bh@dJ>VKKAp23wQUwP06,0*49
$IIMWV,009.0,R,15.8,N,A*08
$IIMWV,019.5,T,7.4,N,A*35
$IIVHW,001.0,T,000.0,M,8.59,N,15.91,K*6C
$IIVPW,8.10,N,4.18,M*56
$IIVWR,009.0,R,15.8,N,8.1,M,29.3,K*4D
$IIVWT,019.5,R,7.4,N,3.8,M,13.7,K*7F
!AIVDM,1,1,,B,402ad:0000Htt0vm1DJ41SW02PS:,0*4A
!AIVDO,1,1,,,B3WgRq00C0@dJ?6KKC@13wR5wP06,0*23
$IIAPB,A,A,,,N,,,,,1,303.5,M,,,A*27
$IIBWC,145304,,,,,304.5,T,303.5,M,57.50,N,1*19
$IIDBT,232.7,f,70.95,M,38.78,F*1A
$IIGLL,4456.326,N,01435.242,E,145304,A,A*54
$IIHDG,001.0,,,1,E*3C
$IIHDM,001.0,M*23
$IIHDT,002.0,T*20
$IIRMB,A,,,,1,,,,,57.50,304.5,,,A*69
!AIVDM,1,1,,B,13Sg0:4P0S128nJIgRT:gwv80D0H,0*41
!AIVDM,1,1,,A,402A`S1uak>m413@4tInBW7005kD,0*56
$IIRMC,145304,A,4456.326,N,01435.242,E,7.6,003.0,060710,1,E,A*15
$IIRSA,1,A,,V*66
$IIMWV,009.0,R,15.9,N,A*09
$IIMWV,019.5,T,7.4,N,A*35
!AIVDO,1,1,,,B3WgRq00Bh@dJ?VKKDT1owRUwP06,0*35
$IIVHW,001.0,T,000.0,M,8.65,N,16.02,K*6A
$IIVPW,8.15,N,4.20,M*58
$IIVWR,009.0,R,15.9,N,8.2,M,29.4,K*48
$IIVWT,019.5,R,7.4,N,3.8,M,13.7,K*7F
!AIVDO,1,1,,,B3WgRq00C0@dJ@VKKEp2OwS5wP06,0*74
$IIGSA,,3,27,04,12,30,14,02,29,09,,,,,,1,*7F
$IIGSV,2,1,24,12,74,318,48,09,58,133,47,27,50,134,45,30,40,275,45*6A
$IIGSV,2,2,24,14,31,304,43,02,23,118,41,04,23,074,44,29,13,209,41*60
$IIMTW,24.5,C*10
$IIZDA,145306,06,07,2010,,*58
$IIHVM,1,E*27
$IIZTG,145306,073356,1*55
$IIGGA,145306,4456.330,N,01435.242,E,1,08,1,2,M,43,M,,*46
$IIMWD,014.0,T,013.0,M,7.0,N,3.6,M*41
$IIVLW,17536.6,N,184.53,N*76
!AIVDO,1,1,,,B3WgRq00C0@dJAVKKG@1CwSUwP06,0*28
!AIVDM,1,1,,A,D02ad:23@D9J5lDfr3LT9H00003,2*4B
$IIVTG,003.0,T,002.0,M,7.6,N,14.1,K*6D
!AIVDO,1,1,,B,B3WgRq00C0@dJAVKKG@1CwSUoP06,0*72
$IIAPB,A,A,,,N,,,,,1,303.5,M,,,A*27
$IIBWC,145307,,,,,304.5,T,303.5,M,57.50,N,1*1A
$IIDBT,232.7,f,70.95,M,38.78,F*1A
$IIGLL,4456.332,N,01435.242,E,145307,A,A*52
$IIHDG,001.0,,,1,E*3C
$IIHDM,001.0,M*23
$IIHDT,002.0,T*20
$IIRMB,A,,,,1,,,,,57.50,304.5,,,A*69
$IIRMC,145307,A,4456.332,N,01435.242,E,7.6,003.0,060710,1,E,A*13
$IIRSA,0,A,,V*67
$IIMWV,009.5,R,15.8,N,A*0D
$IIMWV,021.0,T,7.3,N,A*3C
!AIVDO,1,1,,,B3WgRq00C0@dJB6KKHT1OwT5wP06,0*3B
$IIVHW,001.0,T,000.0,M,8.71,N,16.13,K*6F
$IIVPW,8.13,N,4.19,M*54
$IIVWR,009.5,R,15.8,N,8.1,M,29.3,K*48
$IIVWT,012.0,R,7.1,N,3.7,M,13.1,K*7D
$IIAPB,A,A,,,N,,,,,1,303.5,M,,,A*27
$IIBWC,145308,,,,,304.5,T,303.5,M,57.50,N,1*15
$IIDBT,233.4,f,71.16,M,38.90,F*14
$IIGLL,4456.334,N,01435.242,E,145309,A,A*5A
$IIHDG,000.5,,,1,E*38
$IIHDM,000.5,M*27
$IIHDT,001.0,T*23
!AIVDM,1,1,,A,13Srb@8P00141spIU<f00?v@0<08,0*33
!AIVDO,1,1,,,B3WgRq00C0@dJBVKKIt1OwTUwP06,0*1A
$IIRMB,A,,,,1,,,,,57.50,304.5,,,A*69
$IIRMC,145309,A,4456.337,N,01435.242,E,7.6,003.0,060710,1,E,A*18
!AIVDM,1,1,,B,4@2A`UQuak>m813d20IWT270085o,0*1B
!AIVDM,1,1,,A,4@2A`PQuak>m910f5hIhc`7005kD,0*60
$IIRSA,0,A,,V*67
$IIMWV,010.5,R,16.3,N,A*0D
$IIMWV,022.0,T,7.8,N,A*34
$IIVHW,002.0,T,001.0,M,8.71,N,16.13,K*6D
$IIVPW,8.02,N,4.13,M*5E
$IIVWR,010.5,R,15.9,N,8.2,M,29.4,K*45
$IIVWT,025.0,R,6.7,N,3.5,M,12.4,K*78
$IIAPB,A,A,,,N,,,,,1,303.5,M,,,A*27
$IIBWC,145310,,,,,304.5,T,303.5,M,57.50,N,1*1C
!AIVDO,1,1,,,B3WgRq00C0@dJCVKKK@1KwU5wP06,0*48
$IIDBT,233.7,f,71.25,M,38.95,F*12
$IIGLL,4456.339,N,01435.243,E,145310,A,A*5E
$IIHDG,001.0,,,1,E*3C
$IIHDM,001.0,M*23
$IIHDT,002.0,T*20
$IIRMB,A,,,,1,,,,,57.50,304.5,,,A*69
$IIRMC,145310,A,4456.339,N,01435.243,E,7.6,003.0,060710,1,E,A*1F
$IIRSA,0,A,,V*67
$IIMWV,010.5,R,17.2,N,A*0D
$IIMWV,021.0,T,8.8,N,A*38
$IIVHW,002.0,T,001.0,M,8.67,N,16.06,K*6E
$IIVPW,8.09,N,4.17,M*51
!AIVDO,1,1,,,B3WgRq00C0@dJD6KKLT2?wUUwP06,0*2B
$IIVWR,010.5,R,17.2,N,8.9,M,31.9,K*43
$IIVWT,021.0,R,8.8,N,4.5,M,16.3,K*79
$IIGGA,145311,4456.341,N,01435.243,E,1,08,1,2,M,43,M,,*47
$IIMWD,014.0,T,013.0,M,8.6,N,4.4,M*4D
$IIVLW,17536.6,N,184.53,N*76
$IIVTG,003.0,T,002.0,M,7.6,N,14.1,K*6D
$IIAPB,A,A,,,N,,,,,1,303.5,M,,,A*27
$IIBWC,145312,,,,,304.5,T,303.5,M,57.50,N,1*1E
$IIDBT,233.7,f,71.25,M,38.95,F*12
!AIVDO,1,1,,,B3WgRq00C0@dJDVKKMp2;wV5wP06,0*09
$IIGLL,4456.343,N,01435.243,E,145312,A,A*51
$IIHDG,000.0,,,1,E*3D
$IIHDM,000.0,M*22
$IIHDT,001.0,T*23
$IIRMB,A,,,,1,,,,,57.50,304.5,,,A*69
$IIRMC,145312,A,4456.343,N,01435.243,E,7.6,003.0,060710,1,E,A*10
$IIRSA,0,A,,V*67
$IIMWV,005.5,R,17.9,N,A*02
$IIMWV,011.5,T,8.7,N,A*31
$IIVHW,001.5,T,000.5,M,9.29,N,17.20,K*62
$IIVPW,9.10,N,4.69,M*51
$IIVWR,005.5,R,17.9,N,9.2,M,33.1,K*4C
!AIVDO,1,1,,,B3WgRq00C0@dJEVKKO<1;wVUwP06,0*25
$IIVWT,011.5,R,8.7,N,4.5,M,16.1,K*72
!AIVDM,1,1,,A,13Sg0:4P0T128jvIgRVbi?vH0@8?,0*6A
!AIVDM,1,1,,B,13SdIG011f130h0Ida25LJFL0<06,0*6F
$IIAPB,A,A,,,N,,,,,1,303.5,M,,,A*27
$IIBWC,145314,,,,,304.5,T,303.5,M,57.50,N,1*18
$IIDBT,236.2,f,72.01,M,39.36,F*1F
$IIGLL,4456.347,N,01435.243,E,145314,A,A*53
!AIVDO,1,1,,,B3WgRq00C0@dJF6KKPP23wW5wP06,0*5F
$IIHDG,000.0,,,1,E*3D
$IIHDM,000.0,M*22
$IIHDT,001.0,T*23
$IIRMB,A,,,,1,,,,,57.50,304.5,,,A*69
$IIRMC,145314,A,4456.347,N,01435.243,E,7.6,003.0,060710,1,E,A*12
$IIRSA,0,A,,V*67
$IIMWV,007.0,R,17.1,N,A*0D
$IIMWV,014.0,T,8.5,N,A*33
$IIVHW,001.5,T,000.5,M,8.67,N,16.06,K*6C
$IIVPW,8.41,N,4.34,M*5C
$IIVWR,007.0,R,17.1,N,8.8,M,31.7,K*4C
$IIVWT,014.0,R,8.5,N,4.4,M,15.7,K*74
!AIVDO,1,1,,,B3WgRq00C0@dJFVKKQp1cwWUsP06,0*29
$IIGSA,,3,27,04,12,30,14,02,29,09,,,,,,1,*7F
$IIGSV,2,1,24,12,74,318,47,09,58,133,47,27,50,134,44,30,40,275,45*64
$IIGSV,2,2,24,14,31,304,43,02,23,118,42,04,23,074,45,29,13,209,42*61
$IIMTW,24.4,C*11
!AIVDO,1,1,,,B3WgRq00C0@dJG6KKS<1Gw`5wP06,0*71
$IIZDA,145316,06,07,2010,,*59
$IIHVM,1,E*27
$IIZTG,145316,073356,1*54
$IIGGA,145316,4456.351,N,01435.244,E,1,08,1,2,M,43,M,,*46
$IIMWD,019.0,T,018.0,M,7.7,N,4.0,M*41
$IIVLW,17536.6,N,184.55,N*70
$IIVTG,003.0,T,002.0,M,7.6,N,14.1,K*6D
$IIAPB,A,A,,,N,,,,,1,303.5,M,,,A*27
$IIBWC,145317,,,,,304.5,T,303.5,M,57.50,N,1*1B
!AIVDO,1,1,,,B3WgRq00C0@dJH6KKTT2Cw`UwP06,0*76
$IIDBT,237.7,f,72.47,M,39.61,F*1B
$IIGLL,4456.353,N,01435.244,E,145317,A,A*52
$IIHDG,000.0,,,1,E*3D
$IIHDM,000.0,M*22
$IIHDT,001.0,T*23
$IIRMB,A,,,,1,,,,,57.50,304.5,,,A*69
$IIRMC,145317,A,4456.353,N,01435.244,E,7.6,003.0,060710,1,E,A*13
$IIRSA,0,A,,V*67
$IIMWV,004.0,R,16.8,N,A*06
$IIMWV,008.5,T,7.9,N,A*38
$IIVHW,000.5,T,359.5,M,8.94,N,16.56,K*6B
$IIVPW,8.84,N,4.56,M*51
$IIVWR,004.0,R,16.8,N,8.7,M,31.1,K*4E
!AIVDO,1,1,,,B3WgRq00C0@dJHVKKUp1gwa5wP06,0*75
$IIVWT,008.5,R,7.9,N,4.1,M,14.6,K*7A
$IIAPB,A,A,,,N,,,,,1,303.5,M,,,A*27
$IIBWC,145318,,,,,304.5,T,303.5,M,57.50,N,1*14
!AIVDM,1,1,,B,D@2A`UR<`O6D,0*54
$IIDBT,237.7,f,72.47,M,39.61,F*1B
$IIGLL,4456.356,N,01435.244,E,145318,A,A*58
!AIVDM,1,1,,A,D02ad:1W8D9IadDfqWDT9H00001,2*66
$IIHDG,359.5,,,1,E*37
$IIHDM,359.5,M*28
$IIHDT,000.5,T*27
$IIRMB,A,,,,1,,,,,57.50,304.5,,,A*69
$IIRMC,145319,A,4456.358,N,01435.244,E,7.6,003.0,060710,1,E,A*16
!AIVDM,1,1,,A,4@2A`UQuak>mB13d20IWT27008;f,0*65
!AIVDM,1,1,,B,4@2A`PQuak>mC10f5hIhc`7005kD,0*19
!AIVDO,1,1,,,B3WgRq00C0@dJI6KKW<1GwaUwP06,0*1A
$IIRSA,1,A,,V*66
$IIMWV,013.5,R,17.3,N,A*0F
$IIMWV,026.5,T,8.9,N,A*3B
$IIVHW,000.0,T,359.0,M,8.79,N,16.28,K*61
$IIVPW,7.87,N,4.06,M*58
$IIVWR,013.5,R,17.6,N,9.1,M,32.6,K*41
$IIVWT,026.5,R,9.3,N,4.8,M,17.2,K*7C
$IIAPB,A,A,,,N,,,,,1,303.5,M,,,A*27
$IIBWC,145320,,,,,304.5,T,303.5,M,57.50,N,1*1F
!AIVDM,1,1,,B,13Srb@8P00141spIU<f00?vV0@<:,0*54
$IIDBT,238.1,f,72.59,M,39.68,F*14
$IIGLL,4456.360,N,01435.244,E,145320,A,A*56
$IIHDG,359.5,,,1,E*37
$IIHDM,359.5,M*28
$IIHDT,000.0,T*22
!AIVDO,1,1,,,B3WgRq00C0@dJIVKK`T1?wb5wP06,0*3E
$IIRMB,A,,,,1,,,,,57.50,304.5,,,A*69
$IIRMC,145320,A,4456.360,N,01435.244,E,7.6,003.0,060710,1,E,A*17
$IIRSA,1,A,,V*66
$IIMWV,007.0,R,17.6,N,A*0A
$IIMWV,014.5,T,8.6,N,A*35
$IIVHW,000.0,T,359.0,M,9.06,N,16.78,K*6D
$IIVPW,8.77,N,4.52,M*59
$IIVWR,007.0,R,17.6,N,9.1,M,32.6,K*41
$IIVWT,014.5,R,8.6,N,4.4,M,15.9,K*7C
$IIGGA,145321,4456.362,N,01435.244,E,1,08,1,2,M,43,M,,*42
!AIVDO,1,1,,,B3WgRq00C0@dJJ6KKap1cwbUwP06,0*44
$IIMWD,019.0,T,018.0,M,8.7,N,4.5,M*4B
$IIVLW,17536.6,N,184.55,N*70
$IIVTG,002.0,T,001.0,M,7.6,N,14.1,K*6F
$IIAPB,A,A,,,N,,,,,1,303.5,M,,,A*27
$IIBWC,145322,,,,,304.5,T,303.5,M,57.50,N,1*1D
$IIDBT,239.7,f,73.08,M,39.95,F*14
$IIGLL,4456.364,N,01435.244,E,145322,A,A*50
$IIHDG,359.0,,,1,E*32
$IIHDM,359.0,M*2D
$IIHDT,000.0,T*22
$IIRMB,A,,,,1,,,,,57.50,304.5,,,A*69
!AIVDO,1,1,,,B3WgRq00C0@dJJVKKdP0cwcUsP06,0*05
$IIRMC,145322,A,4456.364,N,01435.244,E,7.6,002.0,060710,1,E,A*10
$IIRSA,0,A,,V*67
!AIVDM,1,1,,B,D02ad:1pHDfr3@D9J3LT9H00003,2*2A
$IIMWV,007.5,R,16.5,N,A*0D
$IIMWV,016.5,T,7.4,N,A*3A
$IIVHW,000.0,T,359.0,M,9.19,N,17.02,K*6F
!AIVDM,1,1,,A,13SdIG0v1f130p8Id`=UL:Ff08=n,0*5E
!AIVDM,1,1,,A,D02ad:1MhD9IPDDfqMtT9H00003,2*15
$IIVPW,8.81,N,4.54,M*56
$IIVWR,007.5,R,16.5,N,8.5,M,30.6,K*41
$IIVWT,016.5,R,7.4,N,3.8,M,13.7,K*70
!AIVDO,1,1,,,B3WgRq00C0@dJJVKKdP0cwcUsP06,0*05
$IIAPB,A,A,,,N,,,,,1,303.5,M,,,A*27
$IIBWC,145324,,,,,304.5,T,303.5,M,57.50,N,1*1B
$IIDBT,238.7,f,72.77,M,39.78,F*1F
$IIGLL,4456.366,N,01435.244,E,145324,A,A*54
!AIVDM,1,1,,B,13Sg0:4P0W128ejIgRWJS?vf0<0H,0*47
$IIHDG,359.0,,,1,E*32
$IIHDM,359.0,M*2D
$IIHDT,000.0,T*22
$IIRMB,A,,,,1,,,,,57.50,304.5,,,A*69
!AIVDO,1,1,,,B3WgRq00C@@dJJVKKg?PcwdUsP06,0*7E
$IIRMC,145324,A,4456.368,N,01435.244,E,7.6,002.0,060710,1,E,A*1A
$IIRSA,1,A,,V*66
$IIMWV,004.5,R,18.0,N,A*05
$IIMWV,008.5,T,9.3,N,A*3C
$IIVHW,000.0,T,359.0,M,8.71,N,16.13,K*61
$IIVPW,8.61,N,4.44,M*59
$IIVWR,004.5,R,18.0,N,9.3,M,33.3,K*48
$IIVWT,008.5,R,9.3,N,4.8,M,17.2,K*70
!AIVDO,1,1,,,B3WgRq00Bh@dJJVKKhT1;we5sP06,0*6B
$IIGSA,,3,27,04,12,30,14,02,29,09,,,,,,1,*7F
$IIGSV,2,1,24,12,74,318,47,09,58,133,46,27,50,134,43,30,40,275,45*62
$IIGSV,2,2,24,14,31,304,45,02,23,118,42,04,23,074,43,29,13,209,40*63
$IIMTW,24.4,C*11
$IIZDA,145326,06,07,2010,,*5A
$IIHVM,1,E*27
$IIZTG,145326,072803,1*5D
$IIGGA,145326,4456.372,N,01435.244,E,1,08,1,2,M,43,M,,*44
!AIVDO,1,1,,,B3WgRq00C0@dJK6KKip17weUsP06,0*1A
!AIVDM,1,1,,B,D02ad:1g0DfqqpD9Ir4T9H00002,2*0F
$IIMWD,020.0,T,019.0,M,9.3,N,4.8,M*48
$IIVLW,17536.6,N,184.58,N*7D
!AIVDM,1,1,,A,13S:`20P00141dHIU9gh0?vl00Sb,0*69
!AIVDM,1,1,,B,13SgmB0P1P11?tBImo8sswvl0D0M,0*23
$IIVTG,002.0,T,001.0,M,7.7,N,14.3,K*6C
