$IIBWC,091809,,,,,,T,,M,,N,*08
$IIDBT,100.3,f,30.58,M,16.71,F*1C
$IIGLL,4351.491,N,01532.142,E,091809,A,D*51
$IIHDG,343.0,,,,*4D
$IIHDM,343.0,M*26
$IIRMC,091809,A,4351.492,N,01532.141,E,5.0,326.0,070513,,,D*64
$IIRSA,8,A,,V*6F
$IIMWV,305.0,R,7.7,N,A*3B
$IIMWV,285.5,T,6.5,N,A*32
$IIVHW,,T,343.0,M,2.66,N,4.93,K*73
$IIVPW,0.71,N,0.37,M*50
$IIVWR,055.0,L,7.7,N,4.0,M,14.3,K*65
$IIVWT,074.5,L,6.5,N,3.4,M,12.0,K*60
$IIRSA,9,A,,V*6E
$IIGGA,091810,4351.492,N,01532.141,E,2,10,1,3,M,41,M,1,0000*73
$IIMWD,,T,262.0,M,6.8,N,3.5,M*64
$IIVTG,326.0,T,,M,5.0,N,9.3,K*7F
$IIRSA,9,A,,V*6E
$IIBWC,091811,,,,,,T,,M,,N,*01
$IIDBT,100.3,f,30.58,M,16.71,F*1C
$IIGLL,4351.493,N,01532.140,E,091811,A,D*58
$IIHDG,343.0,,,,*4D
$IIHDM,343.0,M*26
$IIRMC,091811,A,4351.494,N,01532.140,E,5.0,326.0,070513,,,D*6A
$IIRSA,9,A,,V*6E
$IIMWV,301.0,R,7.7,N,A*3F
$IIMWV,279.0,T,6.6,N,A*37
$IIVHW,,T,344.0,M,2.93,N,5.43,K*72
$IIVPW,0.46,N,0.24,M*56
$IIVWR,059.0,L,7.7,N,4.0,M,14.3,K*69
$IIVWT,081.0,L,6.6,N,3.4,M,12.2,K*6E
$IIRSA,9,A,,V*6E
$IIRSA,6,A,,V*61
$IIBWC,091813,,,,,,T,,M,,N,*03
$IIDBT,100.9,f,30.76,M,16.81,F*15
$IIGLL,4351.496,N,01532.139,E,091813,A,D*51
$IIHDG,346.5,,,,*4D
$IIHDM,346.5,M*26
$IIRMC,091813,A,4351.497,N,01532.138,E,5.0,326.0,070513,,,D*64
$IIRSA,1,A,,V*66
$IIMWV,299.0,R,7.3,N,A*3B
$IIMWV,275.5,T,6.4,N,A*3C
$IIVHW,,T,348.0,M,2.93,N,5.43,K*7E
$IIVPW,0.28,N,0.14,M*5D
$IIVWR,061.0,L,7.3,N,3.8,M,13.5,K*68
$IIVWT,084.5,L,6.4,N,3.3,M,11.9,K*63
$IIRSA,-1,A,,V*4B
$IIRSA,-1,A,,V*4B
$IIGSA,,3,08,02,13,04,09,05,10,28,,,,,,1,*70
$IIGSV,2,1,24,08,76,212,46,07,69,052,43,10,68,182,47,05,45,303,44*6A
$IIGSV,2,2,24,13,30,082,46,09,26,230,41,02,22,244,30,26,19,282,40*6B
$IIMTW,40.0,C*17
$IIZDA,091815,07,05,2013,,*59
$IIRSA,3,A,,V*64
$IIGGA,091815,4351.499,N,01532.136,E,2,10,1,2,M,41,M,1,0000*7C
$IIMWD,,T,267.0,M,6.9,N,3.6,M*63
$IIVTG,327.0,T,,M,5.0,N,9.3,K*7E
$IIRSA,6,A,,V*61
$IIBWC,091816,,,,,,T,,M,,N,*06
$IIDBT,98.0,f,29.88,M,16.33,F*2C
$IIGLL,4351.499,N,01532.136,E,091816,A,D*54
$IIHDG,351.0,,,,*4E
$IIHDM,351.0,M*25
$IIRMC,091816,A,4351.500,N,01532.135,E,5.0,328.0,070513,,,D*6D
$IIRSA,5,A,,V*62
$IIMWV,303.0,R,7.5,N,A*3F
$IIMWV,280.5,T,6.3,N,A*31
$IIVHW,,T,351.0,M,2.93,N,5.43,K*76
$IIVPW,0.53,N,0.27,M*51
$IIVWR,060.5,L,7.3,N,3.8,M,13.5,K*6C
$IIVWT,084.0,L,6.3,N,3.2,M,11.7,K*6E
$IIRSA,1,A,,V*66
$IIBWC,091817,,,,,,T,,M,,N,*07
$IIDBT,98.2,f,29.94,M,16.36,F*26
$IIGLL,4351.502,N,01532.135,E,091817,A,D*55
$IIHDG,351.5,,,,*4B
$IIHDM,351.5,M*20
$IIRMC,091817,A,4351.502,N,01532.135,E,5.0,329.0,070513,,,D*6F
$IIRSA,6,A,,V*61
$IIMWV,297.5,R,7.3,N,A*30
$IIMWV,278.0,T,6.5,N,A*35
$IIVHW,,T,352.0,M,2.44,N,4.52,K*7E
$IIVPW,0.34,N,0.18,M*5C
$IIVWR,062.5,L,7.3,N,3.8,M,13.5,K*6E
$IIVWT,082.0,L,6.5,N,3.4,M,12.0,K*6C
$IIRSA,6,A,,V*61
$IIRSA,0,A,,V*67
$IIBWC,091819,,,,,,T,,M,,N,*09
$IIDBT,98.2,f,29.94,M,16.36,F*26
$IIGLL,4351.503,N,01532.134,E,091819,A,D*5B
$IIHDG,352.5,,,,*48
$IIHDM,352.5,M*23
$IIRMC,091819,A,4351.503,N,01532.134,E,5.0,329.0,070513,,,D*61
$IIRSA,-13,A,,V*78
$IIMWV,304.5,R,7.0,N,A*38
$IIMWV,281.5,T,5.8,N,A*38
$IIVHW,,T,352.0,M,2.75,N,5.09,K*73
$IIVPW,0.55,N,0.28,M*58
$IIVWR,055.5,L,7.0,N,3.6,M,13.0,K*62
$IIVWT,091.5,L,6.2,N,3.2,M,11.5,K*6C
$IIRSA,-34,A,,V*7D
$IIGGA,091820,4351.504,N,01532.133,E,2,09,1,2,M,41,M,1,0000*72
$IIMWD,,T,259.5,M,6.2,N,3.2,M*64
$IIVTG,332.0,T,,M,5.0,N,9.3,K*7A
$IIRSA,-43,A,,V*7D
$IIRSA,-46,A,,V*78
$IIBWC,091821,,,,,,T,,M,,N,*02
$IIDBT,97.6,f,29.76,M,16.26,F*20
$IIGLL,4351.506,N,01532.133,E,091821,A,D*52
$IIHDG,347.0,,,,*49
$IIHDM,347.0,M*22
$IIRMC,091821,A,4351.507,N,01532.132,E,5.0,334.0,070513,,,D*64
$IIRSA,-46,A,,V*78
$IIMWV,301.0,R,6.7,N,A*3E
$IIMWV,281.0,T,5.8,N,A*3D
$IIVHW,,T,345.0,M,2.31,N,4.28,K*77
$IIVPW,0.44,N,0.23,M*53
$IIVWR,045.0,L,6.7,N,3.5,M,12.4,K*66
$IIVWT,064.0,L,4.9,N,2.5,M,9.1,K*51
$IIRSA,-46,A,,V*78
$IIRSA,-46,A,,V*78
$IIBWC,091823,,,,,,T,,M,,N,*00
$IIDBT,96.6,f,29.45,M,16.10,F*24
$IIGLL,4351.509,N,01532.132,E,091823,A,D*5E
$IIHDG,337.0,,,,*4E
$IIHDM,337.0,M*25
$IIRMC,091823,A,4351.510,N,01532.132,E,5.2,338.0,070513,,,D*6E
$IIRSA,-46,A,,V*78
$IIMWV,321.0,R,6.7,N,A*3C
$IIMWV,305.0,T,5.1,N,A*39
$IIVHW,,T,331.0,M,2.25,N,4.17,K*7D
$IIVPW,1.29,N,0.66,M*58
$IIVWR,033.5,L,6.7,N,3.5,M,12.4,K*62
$IIVWT,045.5,L,5.9,N,3.0,M,10.9,K*62
$IIRSA,-46,A,,V*78
$IIRSA,-46,A,,V*78
$IIGSA,,3,08,02,13,04,09,05,10,28,,,,,,1,*70
$IIGSV,2,1,24,08,77,213,44,07,69,052,47,10,68,182,44,05,45,303,47*6C
$IIGSV,2,2,24,13,30,082,44,09,26,230,39,02,22,244,39,26,20,282,33*61
$IIMTW,40.0,C*17
$IIZDA,091825,07,05,2013,,*5A
$IIGGA,091825,4351.514,N,01532.130,E,2,10,1,4,M,41,M,1,0000*7B
$IIMWD,,T,270.0,M,7.0,N,3.6,M*6D
$IIVTG,336.0,T,,M,5.4,N,10.0,K*41
$IIRSA,-46,A,,V*78
$IIBWC,091826,,,,,,T,,M,,N,*05
$IIDBT,96.6,f,29.45,M,16.10,F*24
$IIGLL,4351.514,N,01532.130,E,091826,A,D*55
$IIHDG,294.5,,,,*43
$IIHDM,294.5,M*28
$IIRMC,091826,A,4351.515,N,01532.128,E,5.4,333.0,070513,,,D*68
$IIRSA,-46,A,,V*78
$IIMWV,337.5,R,8.8,N,A*3F
$IIMWV,344.0,T,7.8,N,A*37
$IIVHW,,T,284.0,M,0.82,N,1.52,K*79
$IIVPW,0.79,N,0.41,M*59
$IIVWR,014.5,L,8.6,N,4.4,M,15.9,K*64
$IIVWT,016.0,L,7.8,N,4.0,M,14.4,K*6C
$IIRSA,-47,A,,V*79
$IIBWC,091827,,,,,,T,,M,,N,*04
$IIDBT,96.6,f,29.45,M,16.10,F*24
$IIGLL,4351.516,N,01532.126,E,091827,A,D*51
$IIHDG,269.0,,,,*44
$IIHDM,269.0,M*2F
$IIRMC,091827,A,4351.516,N,01532.126,E,5.3,329.0,070513,,,D*68
$IIRSA,-46,A,,V*78
$IIMWV,352.5,R,8.4,N,A*30
$IIMWV,351.5,T,7.2,N,A*3C
$IIVHW,,T,260.5,M,1.11,N,2.06,K*7F
$IIVPW,1.10,N,0.57,M*50
$IIVWR,007.5,L,8.4,N,4.3,M,15.6,K*6C
$IIVWT,008.5,L,7.2,N,3.7,M,13.3,K*6C
$IIRSA,-47,A,,V*79
$IIBWC,091829,,,,,,T,,M,,N,*0A
$IIDBT,96.6,f,29.45,M,16.10,F*24
$IIGLL,4351.516,N,01532.124,E,091829,A,D*5D
$IIHDG,244.5,,,,*4E
$IIHDM,244.5,M*25
$IIRMC,091829,A,4351.517,N,01532.123,E,4.9,320.0,070513,,,D*60
$IIRSA,-46,A,,V*78
$IIMWV,359.5,R,8.4,N,A*3B
$IIMWV,002.5,T,7.8,N,A*33
$IIVHW,,T,237.0,M,0.55,N,1.02,K*7E
$IIVPW,0.55,N,0.28,M*58
$IIVWR,002.5,R,8.1,N,4.2,M,15.0,K*75
$IIVWT,002.5,R,7.5,N,3.9,M,13.9,K*7B
$IIRSA,-46,A,,V*78
$IIGGA,091830,4351.517,N,01532.123,E,2,09,1,4,M,41,M,1,0000*76
$IIMWD,,T,233.5,M,7.5,N,3.9,M*65
$IIVTG,314.0,T,,M,4.6,N,8.5,K*7E
$IIBWC,091831,,,,,,T,,M,,N,*03
$IIDBT,110.5,f,33.69,M,18.41,F*17
$IIGLL,4351.517,N,01532.121,E,091831,A,D*50
$IIHDG,220.0,,,,*49
$IIHDM,220.0,M*22
$IIRMC,091831,A,4351.517,N,01532.119,E,3.8,286.0,070513,,,D*6B
$IIRSA,-46,A,,V*78
$IIMWV,019.5,R,8.0,N,A*38
$IIMWV,023.0,T,6.8,N,A*34
$IIVHW,,T,214.0,M,1.20,N,2.22,K*7D
$IIVPW,1.06,N,0.55,M*55
$IIVWR,023.5,R,7.8,N,4.0,M,14.4,K*77
$IIVWT,027.5,R,6.7,N,3.5,M,12.4,K*7F
$IIRSA,-46,A,,V*78
$IIRSA,-46,A,,V*78
$IIBWC,091833,,,,,,T,,M,,N,*01
$IIDBT,98.2,f,29.94,M,16.36,F*26
$IIGLL,4351.516,N,01532.118,E,091833,A,D*59
$IIHDG,200.0,,,,*4B
$IIHDM,200.0,M*20
$IIRMC,091833,A,4351.516,N,01532.118,E,3.6,265.0,070513,,,D*6A
$IIRSA,-46,A,,V*78
$IIMWV,026.5,R,6.9,N,A*33
$IIMWV,031.5,T,5.8,N,A*31
$IIVHW,,T,195.0,M,1.15,N,2.13,K*73
$IIVPW,0.98,N,0.51,M*57
$IIVWR,026.5,R,6.9,N,3.6,M,12.8,K*79
$IIVWT,031.5,R,5.8,N,3.0,M,10.7,K*70
$IIRSA,-46,A,,V*78
$IIRSA,-46,A,,V*78
$IIGSA,,3,08,02,13,04,09,05,10,28,,,,,,1,*70
$IIGSV,2,1,24,08,77,213,45,07,69,052,44,10,68,182,46,05,45,303,46*6D
$IIGSV,2,2,24,13,30,082,48,09,26,230,33,02,22,244,39,26,20,282,39*6D
$IIMTW,40.0,C*17
$IIZDA,091835,07,05,2013,,*5B
$IIRSA,-39,A,,V*70
$IIGGA,091835,4351.514,N,01532.114,E,2,10,1,0,M,41,M,7,0000*7E
$IIMWD,,T,235.5,M,5.8,N,3.0,M*65
$IIVTG,225.0,T,,M,3.4,N,6.3,K*70
$IIRSA,-31,A,,V*78
$IIBWC,091836,,,,,,T,,M,,N,*04
$IIDBT,100.0,f,30.49,M,16.66,F*19
$IIGLL,4351.514,N,01532.114,E,091836,A,D*52
$IIHDG,174.0,,,,*4B
$IIHDM,173.0,M*27
$IIRMC,091836,A,4351.513,N,01532.113,E,3.4,213.0,070513,,,D*62
$IIRSA,-14,A,,V*7F
$IIMWV,063.5,R,7.0,N,A*3A
$IIMWV,071.5,T,6.6,N,A*38
$IIVHW,,T,171.5,M,1.01,N,1.87,K*77
$IIVPW,0.32,N,0.16,M*54
$IIVWR,063.5,R,7.0,N,3.6,M,13.0,K*79
$IIVWT,071.5,R,6.6,N,3.4,M,12.2,K*7A
$IIRSA,-4,A,,V*4E
$IIBWC,091837,,,,,,T,,M,,N,*05
$IIDBT,100.0,f,30.49,M,16.66,F*19
$IIGLL,4351.512,N,01532.113,E,091837,A,D*52
$IIHDG,167.0,,,,*49
$IIHDM,166.0,M*23
$IIRMC,091837,A,4351.512,N,01532.113,E,3.2,201.0,070513,,,D*67
$IIRSA,19,A,,V*5F
$IIMWV,066.0,R,7.3,N,A*39
$IIMWV,077.0,T,6.8,N,A*35
$IIVHW,,T,164.5,M,1.41,N,2.61,K*7C
$IIVPW,0.32,N,0.16,M*54
$IIVWR,066.0,R,7.3,N,3.8,M,13.5,K*71
$IIVWT,082.0,R,7.3,N,3.8,M,13.5,K*7D
$IIRSA,33,A,,V*57
$IIRSA,37,A,,V*53
$IIBWC,091839,,,,,,T,,M,,N,*0B
$IIDBT,100.0,f,30.49,M,16.66,F*19
$IIGLL,4351.511,N,01532.113,E,091839,A,D*5F
$IIHDG,162.5,,,,*49
$IIHDM,162.5,M*22
$IIRMC,091839,A,4351.510,N,01532.114,E,2.8,172.0,070513,,,D*60
$IIRSA,40,A,,V*53
$IIMWV,074.0,R,7.2,N,A*3B
$IIMWV,084.0,T,6.9,N,A*38
$IIVHW,,T,162.5,M,1.25,N,2.31,K*7D
$IIVPW,0.13,N,0.07,M*57
$IIVWR,074.0,R,7.2,N,3.7,M,13.3,K*7A
$IIVWT,084.0,R,6.9,N,3.6,M,12.8,K*72
$IIRSA,26,A,,V*53
$IIGGA,091840,4351.510,N,01532.114,E,2,10,1,0,M,41,M,7,0000*78
$IIMWD,,T,246.0,M,6.9,N,3.6,M*60
$IIVTG,160.0,T,,M,2.7,N,5.0,K*70
$IIRSA,13,A,,V*55
$IIRSA,9,A,,V*6E
$IIBWC,091841,,,,,,T,,M,,N,*04
$IIDBT,101.1,f,30.82,M,16.85,F*13
$IIGLL,4351.510,N,01532.114,E,091841,A,D*56
$IIHDG,161.5,,,,*4A
$IIHDM,161.5,M*21
$IIRMC,091841,A,4351.509,N,01532.115,E,2.7,152.0,070513,,,D*6B
$IIRSA,-2,A,,V*48
$IIMWV,068.5,R,7.2,N,A*33
$IIMWV,080.5,T,6.7,N,A*37
$IIVHW,,T,160.5,M,1.49,N,2.76,K*76
$IIVPW,0.25,N,0.13,M*57
$IIVWR,068.5,R,7.2,N,3.7,M,13.3,K*72
$IIVWT,080.5,R,6.7,N,3.5,M,12.4,K*72
$IIRSA,-10,A,,V*7B
$IIRSA,-11,A,,V*7A
$IIBWC,091843,,,,,,T,,M,,N,*06
$IIDBT,102.7,f,31.31,M,17.11,F*13
$IIGLL,4351.508,N,01532.115,E,091843,A,D*5C
$IIHDG,158.0,,,,*45
$IIHDM,158.0,M*2E
$IIRMC,091843,A,4351.508,N,01532.116,E,2.7,151.0,070513,,,D*68
$IIRSA,-11,A,,V*7A
$IIMWV,074.5,R,6.4,N,A*39
$IIMWV,087.0,T,6.1,N,A*33
$IIVHW,,T,157.5,M,1.35,N,2.50,K*7D
$IIVPW,0.07,N,0.04,M*51
$IIVWR,074.5,R,6.4,N,3.3,M,11.9,K*74
$IIVWT,087.0,R,6.1,N,3.1,M,11.3,K*76
$IIRSA,-10,A,,V*7B
$IIRSA,-7,A,,V*4D
$IIRSA,-3,A,,V*49
$IIGSA,,3,08,02,13,04,09,05,10,28,,,,,,1,*70
$IIGSV,2,1,24,08,77,213,45,07,69,052,46,10,68,182,45,05,45,303,49*63
$IIGSV,2,2,24,13,30,082,45,09,26,230,38,02,22,244,43,26,20,282,43*6B
$IIMTW,40.0,C*17
$IIZDA,091845,07,05,2013,,*5C
$IIRSA,1,A,,V*66
$IIGGA,091845,4351.506,N,01532.117,E,2,10,1,3,M,41,M,17,0000*4B
$IIMWD,,T,243.5,M,6.1,N,3.1,M*6F
$IIVTG,149.0,T,,M,2.8,N,5.2,K*76
$IIRSA,4,A,,V*63
$IIBWC,091846,,,,,,T,,M,,N,*03
$IIDBT,102.0,f,31.10,M,17.00,F*17
$IIGLL,4351.506,N,01532.117,E,091846,A,D*55
$IIHDG,154.0,,,,*49
$IIHDM,154.0,M*22
$IIRMC,091846,A,4351.506,N,01532.118,E,2.8,147.0,070513,,,D*65
$IIRSA,5,A,,V*62
$IIMWV,071.5,R,6.4,N,A*3C
$IIMWV,085.5,T,6.0,N,A*35
$IIVHW,,T,153.5,M,1.54,N,2.85,K*76
$IIVPW,0.12,N,0.06,M*57
$IIVWR,071.5,R,6.4,N,3.3,M,11.9,K*71
$IIVWT,083.5,R,5.9,N,3.0,M,10.9,K*76
$IIRSA,5,A,,V*62
$IIBWC,091847,,,,,,T,,M,,N,*02
$IIDBT,101.4,f,30.91,M,16.90,F*10
$IIGLL,4351.505,N,01532.119,E,091847,A,D*59
$IIHDG,153.0,,,,*4E
$IIHDM,153.5,M*20
$IIRMC,091847,A,4351.505,N,01532.119,E,2.9,146.0,070513,,,D*66
$IIRSA,5,A,,V*62
$IIMWV,069.5,R,6.3,N,A*32
$IIMWV,089.0,T,6.1,N,A*3D
$IIVHW,,T,153.5,M,1.46,N,2.70,K*7F
$IIVPW,0.01,N,0.01,M*52
$IIVWR,075.5,R,6.1,N,3.1,M,11.3,K*78
$IIVWT,089.5,R,5.9,N,3.0,M,10.9,K*7C
$IIRSA,5,A,,V*62
$IIRSA,5,A,,V*62
$IIBWC,091849,,,,,,T,,M,,N,*0C
$IIDBT,101.4,f,30.91,M,16.90,F*10
$IIGLL,4351.504,N,01532.120,E,091849,A,D*5C
$IIHDG,153.0,,,,*4E
$IIHDM,153.0,M*25
$IIRMC,091849,A,4351.504,N,01532.120,E,3.0,142.0,070513,,,D*6F
$IIRSA,5,A,,V*62
$IIMWV,072.5,R,6.5,N,A*3E
$IIMWV,088.5,T,6.2,N,A*3A
$IIVHW,,T,153.0,M,1.79,N,3.31,K*72
$IIVPW,0.05,N,0.03,M*54
$IIVWR,072.5,R,6.5,N,3.4,M,12.0,K*7E
$IIVWT,088.5,R,6.2,N,3.2,M,11.5,K*7A
$IIRSA,3,A,,V*64
$IIGGA,091850,4351.503,N,01532.121,E,2,10,1,3,M,41,M,17,0000*4F
$IIMWD,,T,238.5,M,6.3,N,3.2,M*62
$IIVTG,140.0,T,,M,3.0,N,5.6,K*72
$IIRSA,-1,A,,V*4B
$IIRSA,-3,A,,V*49
$IIBWC,091851,,,,,,T,,M,,N,*05
$IIDBT,100.8,f,30.73,M,16.80,F*10
$IIGLL,4351.503,N,01532.122,E,091851,A,D*50
$IIHDG,153.5,,,,*4B
$IIHDM,153.5,M*20
$IIRMC,091851,A,4351.503,N,01532.122,E,3.1,139.0,070513,,,D*6E
$IIRSA,-4,A,,V*4E
$IIMWV,074.0,R,6.6,N,A*3E
$IIMWV,090.0,T,6.3,N,A*37
$IIVHW,,T,153.0,M,1.79,N,3.31,K*72
$IIVPW,0.00,N,0.00,M*52
$IIVWR,074.0,R,6.6,N,3.4,M,12.2,K*7C
$IIVWT,085.5,R,6.2,N,3.2,M,11.5,K*77
$IIRSA,-4,A,,V*4E
$IIRSA,-2,A,,V*48
$IIBWC,091853,,,,,,T,,M,,N,*07
$IIDBT,101.8,f,31.04,M,16.96,F*17
$IIGLL,4351.502,N,01532.124,E,091853,A,D*55
$IIHDG,152.0,,,,*4F
$IIHDM,152.0,M*24
$IIRMC,091853,A,4351.501,N,01532.125,E,3.2,137.0,070513,,,D*64
$IIRSA,-3,A,,V*49
$IIMWV,072.5,R,6.6,N,A*3D
$IIMWV,088.0,T,6.2,N,A*3F
$IIVHW,,T,152.0,M,1.76,N,3.26,K*7A
$IIVPW,0.06,N,0.03,M*57
$IIVWR,073.5,R,6.6,N,3.4,M,12.2,K*7E
$IIVWT,090.0,R,6.0,N,3.1,M,11.1,K*73
$IIRSA,-3,A,,V*49
$IIRSA,-7,A,,V*4D
$IIGSA,,3,08,02,13,04,09,05,10,28,,,,,,1,*70
$IIGSV,2,1,24,08,77,213,45,07,69,052,46,10,67,182,43,05,45,303,47*64
$IIGSV,2,2,24,13,29,082,35,09,26,231,41,02,22,244,44,26,20,282,45*6A
$IIMTW,40.0,C*17
$IIZDA,091855,07,05,2013,,*5D
$IIRSA,-8,A,,V*42
$IIGGA,091855,4351.499,N,01532.128,E,2,10,1,2,M,41,M,1,0000*77
$IIMWD,,T,234.5,M,5.9,N,3.0,M*65
$IIVTG,136.0,T,,M,3.3,N,6.1,K*74
$IIRSA,-8,A,,V*42
$IIBWC,091856,,,,,,T,,M,,N,*02
$IIDBT,101.5,f,30.95,M,16.91,F*14
$IIGLL,4351.499,N,01532.128,E,091856,A,D*5F
$IIHDG,149.0,,,,*45
$IIHDM,149.0,M*2E
$IIRMC,091856,A,4351.499,N,01532.129,E,3.4,136.0,070513,,,D*6A
$IIRSA,-6,A,,V*4C
$IIMWV,068.5,R,6.4,N,A*34
$IIMWV,087.5,T,6.0,N,A*37
$IIVHW,,T,148.0,M,1.91,N,3.54,K*7D
$IIVPW,0.07,N,0.04,M*51
$IIVWR,070.0,R,6.3,N,3.2,M,11.7,K*7D
$IIVWT,088.0,R,5.9,N,3.0,M,10.9,K*78
$IIRSA,-4,A,,V*4E
$IIBWC,091857,,,,,,T,,M,,N,*03
$IIDBT,101.5,f,30.95,M,16.91,F*14
$IIGLL,4351.498,N,01532.131,E,091857,A,D*57
$IIHDG,147.0,,,,*4B
$IIHDM,147.0,M*20
$IIRMC,091857,A,4351.498,N,01532.131,E,3.5,135.0,070513,,,D*61
$IIRSA,-23,A,,V*7B
$IIMWV,070.0,R,6.2,N,A*3E
$IIMWV,089.0,T,5.8,N,A*37
$IIVHW,,T,146.5,M,2.00,N,3.70,K*7B
$IIVPW,0.03,N,0.02,M*53
$IIVWR,070.0,R,6.2,N,3.2,M,11.5,K*7E
$IIVWT,089.0,R,5.8,N,3.0,M,10.7,K*76
$IIRSA,-30,A,,V*79
$IIRSA,-34,A,,V*7D
$IIRSA,-35,A,,V*7C
$IIRSA,-39,A,,V*70
$IIBWC,091859,,,,,,T,,M,,N,*0D
$IIDBT,101.5,f,30.95,M,16.91,F*14
$IIGLL,4351.497,N,01532.132,E,091859,A,D*55
$IIHDG,143.0,,,,*4F
$IIHDM,143.0,M*24
$IIRMC,091859,A,4351.496,N,01532.133,E,3.6,135.0,070513,,,D*60
$IIRSA,-46,A,,V*78
$IIMWV,071.5,R,5.8,N,A*33
$IIMWV,090.5,T,5.5,N,A*37
$IIVHW,,T,140.0,M,1.91,N,3.54,K*75
$IIVPW,-0.30,N,-0.15,M*55
$IIVWR,080.0,R,5.8,N,3.0,M,10.7,K*79
$IIVWT,099.0,R,5.7,N,2.9,M,10.6,K*71
$IIRSA,-46,A,,V*78
$IIGGA,091900,4351.496,N,01532.133,E,2,10,1,2,M,41,M,1,0000*73
$IIMWD,,T,237.5,M,5.7,N,2.9,M*60
$IIVTG,137.0,T,,M,3.7,N,6.9,K*79
$IIRSA,-40,A,,V*7E
$IIBWC,091901,,,,,,T,,M,,N,*01
$IIDBT,100.5,f,30.64,M,16.75,F*11
$IIGLL,4351.495,N,01532.133,E,091901,A,D*5A
$IIHDG,130.0,,,,*4B
$IIHDM,130.0,M*20
$IIRMC,091901,A,4351.495,N,01532.133,E,3.9,137.0,070513,,,D*62
$IIRSA,-33,A,,V*7A
$IIMWV,088.0,R,5.8,N,A*30
$IIMWV,107.0,T,6.0,N,A*3B
$IIVHW,,T,125.0,M,1.95,N,3.61,K*74
$IIVPW,-0.76,N,-0.39,M*59
$IIVWR,095.5,R,5.9,N,3.0,M,10.9,K*77
$IIVWT,113.0,R,6.3,N,3.2,M,11.7,K*7F
$IIRSA,-25,A,,V*7D
$IIRSA,-22,A,,V*7A
$IIRSA,-18,A,,V*73
$IIRSA,-13,A,,V*78
$IIBWC,091903,,,,,,T,,M,,N,*03
$IIDBT,99.7,f,30.40,M,16.61,F*21
$IIGLL,4351.493,N,01532.135,E,091903,A,D*58
$IIHDG,113.0,,,,*4A
$IIHDM,113.0,M*21
$IIRMC,091903,A,4351.493,N,01532.135,E,4.0,134.0,070513,,,D*6D
$IIRSA,-12,A,,V*79
$IIMWV,102.5,R,6.1,N,A*3C
$IIMWV,119.5,T,6.0,N,A*31
$IIVHW,,T,113.0,M,1.41,N,2.61,K*79
$IIVPW,-0.69,N,-0.36,M*58
$IIVWR,106.5,R,5.5,N,2.8,M,10.2,K*72
$IIVWT,119.5,R,6.0,N,3.1,M,11.1,K*76
$IIRSA,-24,A,,V*7C
$IIRSA,-28,A,,V*70
$IIRSA,-31,A,,V*78
$IIRSA,-35,A,,V*7C
$IIGSA,,3,08,02,13,04,09,05,10,28,,,,,,1,*70
$IIGSV,2,1,24,08,77,213,46,07,69,052,46,10,67,182,43,05,45,303,49*69
$IIGSV,2,2,24,13,29,082,30,09,26,231,41,02,22,244,42,26,20,282,43*6F
$IIMTW,40.0,C*17
$IIZDA,091905,07,05,2013,,*59
$IIRSA,-39,A,,V*70
$IIGGA,091905,4351.491,N,01532.139,E,2,10,1,0,M,41,M,1,0000*79
$IIMWD,,T,244.5,M,5.3,N,2.7,M*6E
$IIVTG,127.0,T,,M,4.0,N,7.4,K*74
$IIRSA,-34,A,,V*7D
$IIBWC,091906,,,,,,T,,M,,N,*06
$IIDBT,98.9,f,30.15,M,16.48,F*25
$IIGLL,4351.491,N,01532.139,E,091906,A,D*53
$IIHDG,091.0,,,,*41
$IIHDM,091.0,M*2A
$IIRMC,091906,A,4351.491,N,01532.141,E,4.0,123.0,070513,,,D*6F
$IIRSA,-27,A,,V*7F
$IIMWV,120.0,R,4.2,N,A*38
$IIMWV,137.5,T,5.3,N,A*3D
$IIVHW,,T,091.0,M,1.87,N,3.46,K*7C
$IIVPW,-1.11,N,-0.57,M*51
$IIVWR,120.0,R,4.2,N,2.2,M,7.8,K*43
$IIVWT,135.0,R,5.1,N,2.6,M,9.4,K*45
$IIRSA,-23,A,,V*7B
$IIBWC,091907,,,,,,T,,M,,N,*07
$IIDBT,98.0,f,29.88,M,16.33,F*2C
$IIGLL,4351.491,N,01532.143,E,091907,A,D*5F
$IIHDG,082.5,,,,*46
$IIHDM,082.5,M*2D
$IIRMC,091907,A,4351.491,N,01532.143,E,4.0,119.0,070513,,,D*65
$IIRSA,-20,A,,V*78
$IIMWV,128.5,R,4.4,N,A*33
$IIMWV,140.0,T,5.3,N,A*38
$IIVHW,,T,078.0,M,1.35,N,2.50,K*74
$IIVPW,-1.03,N,-0.53,M*56
$IIVWR,128.5,R,4.4,N,2.3,M,8.1,K*4F
$IIVWT,140.0,R,5.3,N,2.7,M,9.8,K*48
$IIRSA,-10,A,,V*7B
$IIBWC,091909,,,,,,T,,M,,N,*09
$IIDBT,97.3,f,29.66,M,16.21,F*23
$IIGLL,4351.490,N,01532.144,E,091909,A,D*57
$IIHDG,072.0,,,,*4C
$IIHDM,072.0,M*27
$IIRMC,091909,A,4351.490,N,01532.144,E,3.9,093.0,070513,,,D*60
$IIRSA,-18,A,,V*73
$IIMWV,228.5,R,3.4,N,A*37
$IIMWV,214.5,T,4.5,N,A*38
$IIVHW,,T,069.0,M,1.49,N,2.76,K*7B
$IIVPW,-1.23,N,-0.63,M*57
$IIVWR,131.5,L,3.4,N,1.8,M,6.3,K*5A
$IIVWT,145.5,L,4.5,N,2.3,M,8.3,K*5F
$IIRSA,-29,A,,V*71
$IIGGA,091910,4351.491,N,01532.146,E,2,10,1,0,M,41,M,1,0000*75
$IIMWD,,T,280.0,M,4.5,N,2.3,M*60
$IIVTG,093.0,T,,M,3.7,N,6.9,K*76
$IIRSA,-35,A,,V*7C
$IIRSA,-39,A,,V*70
$IIBWC,091911,,,,,,T,,M,,N,*00
$IIDBT,96.5,f,29.42,M,16.08,F*29
$IIGLL,4351.491,N,01532.147,E,091911,A,D*5C
$IIHDG,058.5,,,,*41
$IIHDM,058.5,M*2A
$IIRMC,091911,A,4351.491,N,01532.147,E,3.6,074.0,070513,,,D*6D
$IIRSA,-43,A,,V*7D
$IIMWV,202.0,R,2.2,N,A*3D
$IIMWV,193.0,T,3.6,N,A*35
$IIVHW,,T,056.0,M,1.49,N,2.76,K*77
$IIVPW,-1.45,N,-0.75,M*50
$IIVWR,158.0,L,2.2,N,1.1,M,4.1,K*5E
$IIVWT,167.0,L,3.6,N,1.9,M,6.7,K*5D
$IIRSA,-46,A,,V*78
$IIRSA,-46,A,,V*78
$IIBWC,091913,,,,,,T,,M,,N,*02
$IIDBT,95.1,f,28.99,M,15.85,F*2F
$IIGLL,4351.492,N,01532.150,E,091913,A,D*5B
$IIHDG,044.0,,,,*49
$IIHDM,044.0,M*22
$IIRMC,091913,A,4351.492,N,01532.150,E,3.9,067.0,070513,,,D*67
$IIRSA,-38,A,,V*71
$IIMWV,228.0,R,1.3,N,A*37
$IIMWV,202.0,T,2.5,N,A*3C
$IIVHW,,T,041.5,M,1.03,N,1.91,K*70
$IIVPW,-0.92,N,-0.47,M*5A
$IIVWR,132.0,L,1.3,N,0.7,M,2.4,K*54
$IIVWT,153.0,L,2.1,N,1.1,M,3.9,K*5F
$IIRSA,-34,A,,V*7D
$IIRSA,-30,A,,V*79
$IIRSA,-27,A,,V*7F
$IIGSA,,3,08,02,13,04,09,05,10,28,,,,,,1,*70
$IIGSV,2,1,24,08,77,213,44,07,69,052,42,10,67,182,43,05,45,303,46*60
$IIGSV,2,2,24,13,29,082,44,09,26,231,46,02,22,244,47,26,20,282,43*6E
$IIMTW,40.0,C*17
$IIZDA,091915,07,05,2013,,*58
$IIGGA,091915,4351.493,N,01532.154,E,2,10,1,2,M,41,M,1,0000*73
$IIMWD,,T,265.5,M,3.8,N,2.0,M*67
$IIVTG,053.0,T,,M,3.9,N,7.2,K*7E
$IIRSA,-26,A,,V*7E
$IIBWC,091916,,,,,,T,,M,,N,*07
$IIDBT,94.6,f,28.84,M,15.76,F*29
$IIGLL,4351.493,N,01532.154,E,091916,A,D*5B
$IIHDG,022.0,,,,*49
$IIHDM,022.0,M*22
$IIRMC,091916,A,4351.494,N,01532.155,E,3.7,045.0,070513,,,D*6F
$IIRSA,-30,A,,V*79
$IIMWV,254.5,R,4.2,N,A*3D
$IIMWV,239.5,T,4.6,N,A*34
$IIVHW,,T,019.0,M,1.25,N,2.31,K*75
$IIVPW,-0.63,N,-0.32,M*56
$IIVWR,105.5,L,4.2,N,2.2,M,7.8,K*5F
$IIVWT,120.5,L,4.6,N,2.4,M,8.5,K*5E
$IIRSA,-34,A,,V*7D
$IIBWC,091917,,,,,,T,,M,,N,*06
$IIDBT,93.6,f,28.54,M,15.60,F*24
$IIGLL,4351.495,N,01532.156,E,091917,A,D*5E
$IIHDG,016.0,,,,*4E
$IIHDM,016.0,M*25
$IIRMC,091917,A,4351.495,N,01532.156,E,3.6,037.0,070513,,,D*68
$IIRSA,-37,A,,V*7E
$IIMWV,272.0,R,4.9,N,A*37
$IIMWV,255.0,T,5.0,N,A*3C
$IIVHW,,T,013.5,M,1.49,N,2.76,K*73
$IIVPW,-0.39,N,-0.20,M*5A
$IIVWR,086.5,L,5.4,N,2.8,M,10.0,K*66
$IIVWT,102.0,L,5.5,N,2.8,M,10.2,K*6B
$IIRSA,-40,A,,V*7E
$IIRSA,-42,A,,V*7C
$IIRSA,-45,A,,V*7B
$IIBWC,091919,,,,,,T,,M,,N,*08
$IIDBT,93.6,f,28.54,M,15.60,F*24
$IIGLL,4351.496,N,01532.157,E,091919,A,D*52
$IIHDG,008.0,,,,*41
$IIHDM,008.0,M*2A
$IIRMC,091919,A,4351.496,N,01532.157,E,3.6,030.0,070513,,,D*63
$IIRSA,-46,A,,V*78
$IIMWV,273.5,R,5.7,N,A*3C
$IIMWV,261.5,T,5.7,N,A*39
$IIVHW,,T,004.0,M,1.18,N,2.19,K*7D
$IIVPW,-0.17,N,-0.09,M*5D
$IIVWR,086.5,L,5.7,N,2.9,M,10.6,K*62
$IIVWT,098.5,L,5.7,N,2.9,M,10.6,K*6B
$IIRSA,-46,A,,V*78
$IIGGA,091920,4351.497,N,01532.157,E,2,10,1,2,M,41,M,1,0000*72
$IIMWD,,T,269.5,M,5.6,N,2.9,M*6A
$IIVTG,024.0,T,,M,3.7,N,6.9,K*7A
$IIRSA,-42,A,,V*7C
$IIBWC,091921,,,,,,T,,M,,N,*03
$IIDBT,91.7,f,27.96,M,15.28,F*2A
$IIGLL,4351.498,N,01532.157,E,091921,A,D*57
$IIHDG,354.5,,,,*4E
$IIHDM,352.0,M*26
$IIRMC,091921,A,4351.498,N,01532.157,E,3.9,014.0,070513,,,D*6F
$IIRSA,-37,A,,V*7E
$IIMWV,283.5,R,5.8,N,A*3C
$IIMWV,271.0,T,5.6,N,A*3C
$IIVHW,,T,351.0,M,1.25,N,2.31,K*7A
$IIVPW,0.02,N,0.01,M*51
$IIVWR,076.5,L,5.8,N,3.0,M,10.7,K*6B
$IIVWT,089.0,L,5.6,N,2.9,M,10.4,K*6D
$IIRSA,-37,A,,V*7E
$IIBWC,091923,,,,,,T,,M,,N,*01
$IIDBT,91.4,f,27.87,M,15.23,F*22
$IIGLL,4351.500,N,01532.158,E,091923,A,D*5A
$IIHDG,341.5,,,,*4A
$IIHDM,341.5,M*21
$IIRMC,091923,A,4351.500,N,01532.158,E,3.9,007.0,070513,,,D*60
$IIRSA,-38,A,,V*71
$IIMWV,295.5,R,6.4,N,A*34
$IIMWV,284.0,T,5.9,N,A*39
$IIVHW,,T,337.0,M,1.11,N,2.06,K*79
$IIVPW,0.31,N,0.16,M*57
$IIVWR,064.5,L,6.4,N,3.3,M,11.9,K*6B
$IIVWT,074.0,L,6.0,N,3.1,M,11.1,K*67
$IIRSA,-38,A,,V*71
$IIRSA,-42,A,,V*7C
$IIGSA,,3,08,02,13,04,09,05,10,28,,,,,,1,*70
$IIGSV,2,1,24,08,77,213,46,07,68,052,43,10,67,182,43,05,46,303,39*69
$IIGSV,2,2,24,13,29,082,39,09,26,231,44,02,22,244,45,26,20,282,37*67
$IIMTW,40.0,C*17
$IIZDA,091925,07,05,2013,,*5B
$IIRSA,-45,A,,V*7B
$IIGGA,091925,4351.504,N,01532.157,E,2,09,1,2,M,41,M,1,0000*74
$IIMWD,,T,266.0,M,6.5,N,3.4,M*6C
$IIVTG,346.0,T,,M,3.7,N,6.9,K*7D
$IIBWC,091926,,,,,,T,,M,,N,*04
$IIDBT,91.4,f,27.87,M,15.23,F*22
$IIGLL,4351.504,N,01532.157,E,091926,A,D*54
$IIHDG,319.5,,,,*47
$IIHDM,319.5,M*2C
$IIRMC,091926,A,4351.505,N,01532.156,E,3.7,340.0,070513,,,D*60
$IIRSA,-46,A,,V*78
$IIMWV,320.0,R,7.4,N,A*3F
$IIMWV,314.5,T,6.6,N,A*38
$IIVHW,,T,315.0,M,1.04,N,1.93,K*72
$IIVPW,0.71,N,0.37,M*50
$IIVWR,041.0,L,7.3,N,3.8,M,13.5,K*6A
$IIVWT,047.0,L,6.5,N,3.4,M,12.0,K*65
$IIRSA,-46,A,,V*78
$IIBWC,091927,,,,,,T,,M,,N,*05
$IIDBT,92.0,f,28.05,M,15.33,F*21
$IIGLL,4351.506,N,01532.156,E,091927,A,D*56
$IIHDG,310.5,,,,*4E
$IIHDM,310.5,M*25
$IIRMC,091927,A,4351.506,N,01532.156,E,3.7,334.0,070513,,,D*61
$IIRSA,-46,A,,V*78
$IIMWV,331.5,R,7.4,N,A*3A
$IIMWV,325.0,T,6.1,N,A*38
$IIVHW,,T,304.0,M,1.44,N,2.67,K*7E
$IIVPW,1.18,N,0.61,M*5D
$IIVWR,028.5,L,7.4,N,3.8,M,13.7,K*65
$IIVWT,035.0,L,6.1,N,3.1,M,11.3,K*61
$IIRSA,-46,A,,V*78
$IIBWC,091929,,,,,,T,,M,,N,*0B
$IIDBT,91.2,f,27.80,M,15.20,F*20
$IIGLL,4351.507,N,01532.155,E,091929,A,D*5A
$IIHDG,297.0,,,,*45
$IIHDM,292.5,M*2E
$IIRMC,091929,A,4351.507,N,01532.155,E,3.6,327.0,070513,,,D*6E
$IIRSA,-46,A,,V*78
$IIMWV,335.0,R,7.3,N,A*3C
$IIMWV,332.5,T,6.7,N,A*3D
$IIVHW,,T,292.5,M,0.65,N,1.20,K*77
$IIVPW,0.58,N,0.30,M*5C
$IIVWR,017.0,L,6.7,N,3.5,M,12.4,K*61
$IIVWT,019.0,L,6.0,N,3.1,M,11.1,K*6C
$IIRSA,-46,A,,V*78
$IIGGA,091930,4351.508,N,01532.154,E,2,09,1,2,M,41,M,1,0000*7F
$IIMWD,,T,263.5,M,6.0,N,3.1,M*6C
$IIVTG,313.0,T,,M,3.6,N,6.7,K*72
$IIRSA,-46,A,,V*78
$IIBWC,091931,,,,,,T,,M,,N,*02
$IIDBT,91.8,f,27.99,M,15.30,F*23
$IIGLL,4351.508,N,01532.153,E,091931,A,D*5A
$IIHDG,277.0,,,,*4B
$IIHDM,277.0,M*20
$IIRMC,091931,A,4351.508,N,01532.153,E,3.4,313.0,070513,,,D*6B
$IIRSA,-46,A,,V*78
$IIMWV,351.0,R,7.1,N,A*3C
$IIMWV,349.5,T,5.9,N,A*3C
$IIVHW,,T,272.5,M,0.84,N,1.56,K*77
$IIVPW,0.84,N,0.43,M*59
$IIVWR,004.0,L,7.1,N,3.7,M,13.1,K*62
$IIVWT,004.5,L,6.2,N,3.2,M,11.5,K*60
$IIRSA,-46,A,,V*78
$IIRSA,-46,A,,V*78
$IIBWC,091933,,,,,,T,,M,,N,*00
$IIDBT,92.9,f,28.32,M,15.48,F*20
$IIGLL,4351.509,N,01532.151,E,091933,A,D*5B
$IIHDG,257.0,,,,*49
$IIHDM,257.0,M*22
$IIRMC,091933,A,4351.509,N,01532.151,E,3.2,299.0,070513,,,D*6F
$IIRSA,-46,A,,V*78
$IIMWV,356.5,R,7.0,N,A*3F
$IIMWV,356.0,T,6.3,N,A*3E
$IIVHW,,T,253.5,M,0.61,N,1.13,K*7E
$IIVPW,0.61,N,0.31,M*57
$IIVWR,002.0,L,7.2,N,3.7,M,13.3,K*65
$IIVWT,002.0,L,6.5,N,3.4,M,12.0,K*64
$IIRSA,-46,A,,V*78
$IIRSA,-46,A,,V*78
$IIRSA,-46,A,,V*78
$IIGSA,,3,08,13,04,09,05,10,28,07,,,,,,1,*75
$IIGSV,2,1,24,08,77,213,47,07,68,052,45,10,67,182,44,05,46,303,45*62
$IIGSV,2,2,24,13,29,082,44,09,26,231,34,02,22,244,26,26,20,282,38*60
$IIMTW,40.0,C*17
$IIZDA,091935,07,05,2013,,*5A
$IIRSA,-46,A,,V*78
$IIGGA,091935,4351.510,N,01532.147,E,2,10,1,3,M,41,M,3,0000*7A
$IIMWD,,T,244.5,M,6.3,N,3.2,M*69
$IIVTG,278.0,T,,M,2.9,N,5.4,K*70
$IIBWC,091936,,,,,,T,,M,,N,*05
$IIDBT,95.1,f,28.99,M,15.85,F*2F
$IIGLL,4351.510,N,01532.147,E,091936,A,D*51
$IIHDG,232.0,,,,*4A
$IIHDM,232.0,M*21
$IIRMC,091936,A,4351.510,N,01532.147,E,2.8,272.0,070513,,,D*6B
$IIRSA,-46,A,,V*78
$IIMWV,011.0,R,6.9,N,A*32
$IIMWV,011.5,T,6.5,N,A*3D
$IIVHW,,T,229.0,M,0.35,N,0.65,K*77
$IIVPW,0.32,N,0.16,M*54
$IIVWR,011.0,R,6.9,N,3.6,M,12.8,K*78
$IIVWT,011.5,R,6.5,N,3.4,M,12.0,K*7D
$IIRSA,-46,A,,V*78
$IIBWC,091937,,,,,,T,,M,,N,*04
$IIDBT,95.3,f,29.05,M,15.88,F*24
$IIGLL,4351.510,N,01532.146,E,091937,A,D*51
$IIHDG,226.0,,,,*4F
$IIHDM,222.0,M*20
$IIRMC,091937,A,4351.510,N,01532.145,E,2.6,264.0,070513,,,D*61
$IIRSA,-48,A,,V*76
$IIMWV,013.0,R,6.5,N,A*3C
$IIMWV,013.0,T,6.5,N,A*3A
$IIVHW,,T,222.0,M,0.00,N,0.00,K*79
$IIVPW,0.00,N,0.00,M*52
$IIVWR,013.0,R,6.5,N,3.4,M,12.0,K*7C
$IIVWT,013.0,R,6.5,N,3.4,M,12.0,K*7A
$IIRSA,-46,A,,V*78
$IIRSA,-46,A,,V*78
$IIBWC,091939,,,,,,T,,M,,N,*0A
$IIDBT,96.7,f,29.48,M,16.11,F*29
$IIGLL,4351.510,N,01532.144,E,091939,A,D*5D
$IIHDG,212.5,,,,*4D
$IIHDM,212.5,M*26
$IIRMC,091939,A,4351.510,N,01532.144,E,2.5,258.0,070513,,,D*62
$IIRSA,-36,A,,V*7F
$IIMWV,034.0,R,6.5,N,A*39
$IIMWV,030.5,T,6.8,N,A*33
$IIVHW,,T,209.5,M,0.00,N,0.00,K*75
$IIVPW,0.00,N,0.00,M*52
$IIVWR,030.5,R,6.8,N,3.5,M,12.6,K*72
$IIVWT,030.5,R,6.8,N,3.5,M,12.6,K*74
$IIRSA,-24,A,,V*7C
$IIGGA,091940,4351.509,N,01532.143,E,2,10,1,3,M,41,M,3,0000*74
$IIMWD,,T,236.5,M,6.8,N,3.5,M*60
$IIVTG,253.0,T,,M,2.4,N,4.4,K*75
$IIRSA,-20,A,,V*78
$IIRSA,-18,A,,V*73
$IIBWC,091941,,,,,,T,,M,,N,*05
$IIDBT,97.0,f,29.57,M,16.16,F*26
$IIGLL,4351.509,N,01532.142,E,091941,A,D*5C
$IIHDG,201.0,,,,*4A
$IIHDM,201.0,M*21
$IIRMC,091941,A,4351.509,N,01532.142,E,2.3,246.0,070513,,,D*6A
$IIRSA,-14,A,,V*7F
$IIMWV,025.0,R,6.7,N,A*3B
$IIMWV,025.0,T,6.7,N,A*3D
$IIVHW,,T,198.5,M,0.00,N,0.00,K*7E
$IIVPW,0.00,N,0.00,M*52
$IIVWR,025.0,R,6.4,N,3.3,M,11.9,K*75
$IIVWT,025.0,R,6.4,N,3.3,M,11.9,K*73
$IIRSA,-5,A,,V*4F
$IIRSA,-1,A,,V*4B
$IIRSA,3,A,,V*64
$IIRSA,5,A,,V*62
$IIBWC,091943,,,,,,T,,M,,N,*07
$IIDBT,96.7,f,29.48,M,16.11,F*29
$IIGLL,4351.508,N,01532.141,E,091943,A,D*5C
$IIHDG,195.0,,,,*44
$IIHDM,193.0,M*29
$IIRMC,091943,A,4351.508,N,01532.141,E,1.9,227.0,070513,,,D*64
$IIRSA,9,A,,V*6E
$IIMWV,049.0,R,5.8,N,A*3D
$IIMWV,049.0,T,5.8,N,A*3B
$IIVHW,,T,193.0,M,0.00,N,0.00,K*70
$IIVPW,0.00,N,0.00,M*52
$IIVWR,049.0,R,5.8,N,3.0,M,10.7,K*7C
$IIVWT,049.0,R,5.8,N,3.0,M,10.7,K*7A
$IIRSA,12,A,,V*54
$IIRSA,16,A,,V*50
$IIRSA,19,A,,V*5F
$IIRSA,23,A,,V*56
$IIRSA,24,A,,V*51
$IIGSA,,3,08,13,04,09,09,05,10,28,,,,,,1,*7B
$IIGSV,2,1,16,08,77,213,42,07,68,052,45,10,67,182,42,05,46,303,45*60
$IIGSV,2,2,16,13,29,082,44,09,26,231,43,02,22,244,45,26,20,282,42*69
$IIMTW,40.0,C*17
$IIZDA,091945,07,05,2013,,*5D
$IIRSA,30,A,,V*54
$IIGGA,091945,4351.506,N,01532.140,E,2,11,1,0,M,41,M,13,0000*4E
$IIMWD,,T,234.0,M,6.3,N,3.2,M*6B
$IIVTG,199.0,T,,M,1.6,N,3.0,K*72
$IIRSA,33,A,,V*57
$IIBWC,091946,,,,,,T,,M,,N,*02
$IIDBT,96.8,f,29.51,M,16.13,F*2C
$IIGLL,4351.506,N,01532.140,E,091946,A,D*56
$IIHDG,189.5,,,,*4C
$IIHDM,189.0,M*22
$IIRMC,091946,A,4351.506,N,01532.140,E,1.5,190.0,070513,,,D*6D
$IIRSA,37,A,,V*53
$IIMWV,052.0,R,6.4,N,A*38
$IIMWV,052.0,T,6.4,N,A*3E
$IIVHW,,T,189.0,M,0.00,N,0.00,K*7B
$IIVPW,0.00,N,0.00,M*52
$IIVWR,052.0,R,6.4,N,3.3,M,11.9,K*75
$IIVWT,052.0,R,6.4,N,3.3,M,11.9,K*73
$IIRSA,36,A,,V*52
$IIBWC,091947,,,,,,T,,M,,N,*03
$IIDBT,96.8,f,29.51,M,16.13,F*2C
$IIGLL,4351.506,N,01532.140,E,091947,A,D*57
$IIHDG,188.0,,,,*48
$IIHDM,188.0,M*23
$IIRMC,091947,A,4351.505,N,01532.140,E,1.5,188.0,070513,,,D*66
$IIRSA,40,A,,V*53
$IIMWV,053.5,R,6.3,N,A*3B
$IIMWV,053.5,T,6.3,N,A*3D
$IIVHW,,T,187.5,M,0.00,N,0.00,K*70
$IIVPW,0.00,N,0.00,M*52
$IIVWR,053.5,R,6.3,N,3.2,M,11.7,K*79
$IIVWT,058.5,R,6.0,N,3.1,M,11.1,K*72
$IIRSA,40,A,,V*53
$IIBWC,091949,,,,,,T,,M,,N,*0D
$IIDBT,97.6,f,29.76,M,16.26,F*20
$IIGLL,4351.505,N,01532.140,E,091949,A,D*5A
$IIHDG,186.5,,,,*43
$IIHDM,186.5,M*28
$IIRMC,091949,A,4351.505,N,01532.140,E,1.5,186.0,070513,,,D*66
$IIRSA,38,A,,V*5C
$IIMWV,049.0,R,5.9,N,A*3C
$IIMWV,049.0,T,5.9,N,A*3A
$IIVHW,,T,186.0,M,0.01,N,0.02,K*77
$IIVPW,0.39,N,0.20,M*5A
$IIVWR,049.0,R,5.9,N,3.0,M,10.9,K*73
$IIVWT,054.5,R,5.4,N,2.8,M,10.0,K*71
$IIRSA,39,A,,V*5D
$IIGGA,091950,4351.504,N,01532.140,E,2,10,1,0,M,41,M,13,0000*49
$IIMWD,,T,248.0,M,5.2,N,2.7,M*66
$IIVTG,184.0,T,,M,1.5,N,2.8,K*74
$IIRSA,43,A,,V*50
$IIBWC,091951,,,,,,T,,M,,N,*04
$IIDBT,98.6,f,30.06,M,16.43,F*23
$IIGLL,4351.504,N,01532.140,E,091951,A,A*57
$IIHDG,186.0,,,,*46
$IIHDM,186.0,M*2D
$IIRMC,091951,A,4351.504,N,01532.140,E,1.5,181.0,070513,,,A*6C
$IIRSA,45,A,,V*56
$IIMWV,061.0,R,5.6,N,A*39
$IIMWV,069.0,T,5.2,N,A*33
$IIVHW,,T,186.0,M,0.82,N,1.52,K*78
$IIVPW,0.29,N,0.15,M*5D
$IIVWR,061.0,R,5.6,N,2.9,M,10.4,K*73
$IIVWT,067.5,R,5.3,N,2.7,M,9.8,K*49
$IIRSA,46,A,,V*55
$IIRSA,45,A,,V*56
$IIBWC,091953,,,,,,T,,M,,N,*06
$IIDBT,98.1,f,29.91,M,16.35,F*23
$IIGLL,4351.503,N,01532.141,E,091953,A,A*53
$IIHDG,187.0,,,,*47
$IIHDM,187.0,M*2C
$IIRMC,091953,A,4351.503,N,01532.141,E,1.5,175.0,070513,,,A*63
$IIRSA,41,A,,V*52
$IIMWV,061.0,R,5.6,N,A*39
$IIMWV,067.0,T,5.3,N,A*3C
$IIVHW,,T,187.0,M,0.65,N,1.20,K*75
$IIVPW,0.25,N,0.13,M*57
$IIVWR,061.0,R,5.6,N,2.9,M,10.4,K*73
$IIVWT,068.0,R,5.2,N,2.7,M,9.6,K*4C
$IIRSA,40,A,,V*53
$IIRSA,37,A,,V*53
$IIRSA,33,A,,V*57
$IIRSA,29,A,,V*5C
$IIGSA,,3,08,02,13,04,09,05,10,28,,,,,,1,*70
$IIGSV,2,1,24,08,77,213,46,07,68,051,45,10,67,182,45,05,46,303,45*61
$IIGSV,2,2,24,13,29,082,42,09,26,231,40,02,22,243,40,26,20,282,41*6C
$IIMTW,40.0,C*17
$IIZDA,091955,07,05,2013,,*5C
$IIRSA,23,A,,V*56
$IIGGA,091955,4351.502,N,01532.142,E,1,11,1,1,M,41,M,13,0000*4B
$IIMWD,,T,241.5,M,5.4,N,2.8,M*63
$IIVTG,167.0,T,,M,1.6,N,3.0,K*73
$IIRSA,14,A,,V*52
$IIBWC,091956,,,,,,T,,M,,N,*03
$IIDBT,98.6,f,30.06,M,16.43,F*23
$IIGLL,4351.502,N,01532.142,E,091956,A,A*54
$IIHDG,190.5,,,,*44
$IIHDM,191.0,M*2B
$IIRMC,091956,A,4351.502,N,01532.142,E,1.6,166.0,070513,,,A*65
$IIRSA,6,A,,V*61
$IIMWV,055.5,R,5.8,N,A*35
$IIMWV,061.5,T,5.4,N,A*38
$IIVHW,,T,191.5,M,0.68,N,1.26,K*7C
$IIVPW,0.32,N,0.16,M*54
$IIVWR,047.0,R,5.8,N,3.0,M,10.7,K*72
$IIVWT,052.0,R,5.5,N,2.8,M,10.2,K*71
$IIRSA,2,A,,V*65
$IIBWC,091957,,,,,,T,,M,,N,*02
$IIDBT,98.6,f,30.06,M,16.43,F*23
$IIGLL,4351.501,N,01532.142,E,091957,A,A*56
$IIHDG,191.5,,,,*45
$IIHDM,191.5,M*2E
$IIRMC,091957,A,4351.500,N,01532.142,E,1.6,166.0,070513,,,A*66
$IIRSA,0,A,,V*67
$IIMWV,047.0,R,6.0,N,A*38
$IIMWV,057.0,T,5.5,N,A*39
$IIVHW,,T,192.0,M,0.43,N,0.80,K*7E
$IIVPW,0.23,N,0.12,M*50
$IIVWR,053.5,R,5.8,N,3.0,M,10.7,K*72
$IIVWT,057.0,R,5.5,N,2.8,M,10.2,K*74
$IIRSA,0,A,,V*67
$IIBWC,091959,,,,,,T,,M,,N,*0C
$IIDBT,98.7,f,30.09,M,16.45,F*2B
$IIGLL,4351.500,N,01532.142,E,091959,A,A*59
$IIHDG,191.5,,,,*45
$IIHDM,191.5,M*2E
$IIRMC,091959,A,4351.500,N,01532.142,E,1.7,166.0,070513,,,A*69
$IIRSA,5,A,,V*62
$IIMWV,045.0,R,5.8,N,A*31
$IIMWV,049.0,T,5.4,N,A*37
$IIVHW,,T,191.5,M,0.56,N,1.04,K*71
$IIVPW,0.50,N,0.26,M*53
$IIVWR,045.0,R,5.8,N,3.0,M,10.7,K*70
$IIVWT,051.0,R,5.2,N,2.7,M,9.6,K*46
$IIRSA,5,A,,V*62
$IIGGA,092000,4351.499,N,01532.142,E,1,11,1,1,M,41,M,13,0000*42
$IIMWD,,T,230.5,M,5.3,N,2.7,M*6D
$IIVTG,167.0,T,,M,1.7,N,3.1,K*73
$IIRSA,4,A,,V*63
$IIBWC,092001,,,,,,T,,M,,N,*0B
$IIDBT,98.9,f,30.15,M,16.48,F*25
$IIGLL,4351.499,N,01532.142,E,092001,A,A*5F
$IIHDG,191.0,,,,*40
$IIHDM,191.0,M*2B
$IIRMC,092001,A,4351.499,N,01532.142,E,1.7,167.0,070513,,,A*6E
$IIRSA,4,A,,V*63
$IIMWV,045.0,R,5.7,N,A*3E
$IIMWV,049.5,T,5.3,N,A*35
$IIVHW,,T,190.5,M,0.58,N,1.07,K*7D
$IIVPW,0.41,N,0.21,M*54
$IIVWR,045.0,R,5.7,N,2.9,M,10.6,K*76
$IIVWT,047.5,R,5.4,N,2.8,M,10.0,K*73
$IIRSA,5,A,,V*62
$IIRSA,7,A,,V*60
$IIBWC,092003,,,,,,T,,M,,N,*09
$IIDBT,98.9,f,30.15,M,16.48,F*25
$IIGLL,4351.498,N,01532.142,E,092003,A,A*5C
$IIHDG,190.0,,,,*41
$IIHDM,190.0,M*2A
$IIRMC,092003,A,4351.498,N,01532.142,E,1.8,169.0,070513,,,A*6C
$IIRSA,15,A,,V*53
$IIMWV,048.5,R,5.8,N,A*39
$IIMWV,053.0,T,5.4,N,A*3C
$IIVHW,,T,190.0,M,0.58,N,1.07,K*78
$IIVPW,0.46,N,0.24,M*56
$IIVWR,044.5,R,5.8,N,3.0,M,10.7,K*74
$IIVWT,050.5,R,5.2,N,2.7,M,9.6,K*42
$IIRSA,16,A,,V*50
$IIRSA,16,A,,V*50
$IIGSA,,3,08,02,13,04,09,05,10,28,,,,,,1,*70
$IIGSV,2,1,24,08,77,213,46,07,68,051,46,10,67,182,45,05,46,303,49*6E
$IIGSV,2,2,24,13,29,082,43,09,26,231,40,02,22,243,37,26,20,282,42*6E
$IIMTW,40.0,C*17
$IIZDA,092005,07,05,2013,,*53
$IIGGA,092005,4351.497,N,01532.142,E,1,10,1,1,M,41,M,13,0000*48
$IIMWD,,T,239.5,M,5.4,N,2.8,M*6C
$IIVTG,169.0,T,,M,1.9,N,3.5,K*77
$IIRSA,16,A,,V*50
$IIBWC,092006,,,,,,T,,M,,N,*0C
$IIDBT,100.1,f,30.52,M,16.68,F*1C
$IIGLL,4351.496,N,01532.143,E,092006,A,A*56
$IIHDG,190.0,,,,*41
$IIHDM,190.0,M*2A
$IIRMC,092006,A,4351.496,N,01532.143,E,1.9,169.0,070513,,,A*67
$IIRSA,20,A,,V*55
$IIMWV,040.5,R,5.8,N,A*31
$IIMWV,045.0,T,5.3,N,A*3C
$IIVHW,,T,189.5,M,0.61,N,1.13,K*7A
$IIVPW,0.45,N,0.23,M*52
$IIVWR,044.0,R,5.8,N,3.0,M,10.7,K*71
$IIVWT,049.0,R,5.3,N,2.7,M,9.8,K*40
$IIRSA,20,A,,V*55
$IIBWC,092007,,,,,,T,,M,,N,*0D
$IIDBT,100.1,f,30.52,M,16.68,F*1C
$IIGLL,4351.496,N,01532.143,E,092007,A,A*57
$IIHDG,189.0,,,,*49
$IIHDM,189.0,M*22
$IIRMC,092007,A,4351.496,N,01532.143,E,1.9,169.0,070513,,,A*66
$IIRSA,18,A,,V*5E
$IIMWV,046.0,R,5.9,N,A*33
$IIMWV,051.0,T,5.4,N,A*3E
$IIVHW,,T,190.0,M,0.67,N,1.24,K*75
$IIVPW,0.42,N,0.22,M*54
$IIVWR,046.0,R,5.9,N,3.0,M,10.9,K*7C
$IIVWT,051.0,R,5.4,N,2.8,M,10.0,K*71
$IIRSA,17,A,,V*51
$IIRSA,17,A,,V*51
$IIBWC,092009,,,,,,T,,M,,N,*03
$IIDBT,100.8,f,30.73,M,16.80,F*10
$IIGLL,4351.494,N,01532.143,E,092009,A,A*5B
$IIHDG,190.0,,,,*41
$IIHDM,190.0,M*2A
$IIRMC,092009,A,4351.494,N,01532.143,E,2.0,169.0,070513,,,A*60
$IIRSA,17,A,,V*51
$IIMWV,044.0,R,5.9,N,A*31
$IIMWV,046.5,T,5.6,N,A*3F
$IIVHW,,T,190.0,M,0.39,N,0.72,K*7C
$IIVPW,0.25,N,0.13,M*57
$IIVWR,046.5,R,5.8,N,3.0,M,10.7,K*76
$IIVWT,054.5,R,5.1,N,2.6,M,9.4,K*46
$IIRSA,17,A,,V*51
$IIGGA,092010,4351.494,N,01532.143,E,1,08,2,1,M,41,M,13,0000*44
$IIMWD,,T,245.5,M,5.1,N,2.6,M*6C
$IIVTG,169.0,T,,M,2.0,N,3.7,K*7F
$IIRSA,17,A,,V*51
$IIBWC,092011,,,,,,T,,M,,N,*0A
$IIDBT,100.4,f,30.61,M,16.73,F*13
$IIGLL,4351.493,N,01532.143,E,092011,A,D*50
$IIHDG,191.0,,,,*40
$IIHDM,191.0,M*2B
$IIRMC,092011,A,4351.493,N,01532.143,E,2.0,169.0,070513,,,D*6B
$IIRSA,17,A,,V*51
$IIMWV,051.0,R,5.8,N,A*34
$IIMWV,059.5,T,5.2,N,A*35
$IIVHW,,T,191.0,M,0.98,N,1.81,K*7B
$IIVPW,0.53,N,0.27,M*51
$IIVWR,049.5,R,6.0,N,3.1,M,11.1,K*74
$IIVWT,056.0,R,5.5,N,2.8,M,10.2,K*75
$IIRSA,17,A,,V*51
$IIBWC,092013,,,,,,T,,M,,N,*08
$IIDBT,101.4,f,30.91,M,16.90,F*10
$IIGLL,4351.492,N,01532.144,E,092013,A,D*54
$IIHDG,192.5,,,,*46
$IIHDM,192.5,M*2D
$IIRMC,092013,A,4351.492,N,01532.144,E,2.1,169.0,070513,,,D*6E
$IIRSA,19,A,,V*5F
$IIMWV,049.0,R,6.5,N,A*33
$IIMWV,055.0,T,5.9,N,A*37
$IIVHW,,T,192.0,M,0.87,N,1.61,K*78
$IIVPW,0.61,N,0.31,M*57
$IIVWR,049.0,R,6.5,N,3.4,M,12.0,K*73
$IIVWT,057.5,R,5.8,N,3.0,M,10.7,K*70
$IIRSA,16,A,,V*50
$IIGSA,,3,08,02,13,09,05,10,28,07,,,,,,2,*70
$IIGSV,2,1,24,08,77,213,46,07,68,051,46,10,67,182,46,05,46,303,48*6C
$IIGSV,2,2,24,13,29,082,43,09,26,231,39,02,22,243,40,26,20,282,44*66
$IIMTW,40.0,C*17
$IIZDA,092015,07,05,2013,,*52
$IIRSA,11,A,,V*57
$IIGGA,092015,4351.490,N,01532.144,E,2,09,2,2,M,41,M,1,0000*70
$IIMWD,,T,241.0,M,5.6,N,2.9,M*65
$IIVTG,169.0,T,,M,2.1,N,3.9,K*70
$IIRSA,6,A,,V*61
$IIBWC,092016,,,,,,T,,M,,N,*0D
$IIDBT,101.8,f,31.04,M,16.96,F*17
$IIGLL,4351.490,N,01532.144,E,092016,A,D*53
$IIHDG,195.0,,,,*44
$IIHDM,195.0,M*2F
$IIRMC,092016,A,4351.490,N,01532.144,E,2.1,169.0,070513,,,D*69
$IIRSA,3,A,,V*64
$IIMWV,043.0,R,6.2,N,A*3E
$IIMWV,049.0,T,5.6,N,A*35
$IIVHW,,T,196.0,M,0.90,N,1.67,K*7C
$IIVPW,0.59,N,0.30,M*5D
$IIVWR,043.0,R,6.2,N,3.2,M,11.5,K*7E
$IIVWT,049.5,R,5.5,N,2.8,M,10.2,K*7E
$IIRSA,1,A,,V*66
$IIBWC,092017,,,,,,T,,M,,N,*0C
$IIDBT,101.5,f,30.95,M,16.91,F*14
$IIGLL,4351.489,N,01532.144,E,092017,A,D*5A
$IIHDG,196.0,,,,*47
$IIHDM,196.0,M*2C
$IIRMC,092017,A,4351.489,N,01532.144,E,2.2,171.0,070513,,,D*6A
$IIRSA,1,A,,V*66
$IIMWV,037.5,R,6.1,N,A*3B
$IIMWV,044.0,T,5.3,N,A*3D
$IIVHW,,T,196.5,M,0.97,N,1.80,K*77
$IIVPW,0.70,N,0.36,M*50
$IIVWR,037.5,R,6.1,N,3.1,M,11.3,K*7E
$IIVWT,044.0,R,5.3,N,2.7,M,9.8,K*4D
$IIRSA,1,A,,V*66
$IIBWC,092019,,,,,,T,,M,,N,*02
$IIDBT,102.5,f,31.25,M,17.08,F*1C
$IIGLL,4351.488,N,01532.144,E,092019,A,D*55
$IIHDG,197.0,,,,*46
$IIHDM,197.0,M*2D
$IIRMC,092019,A,4351.488,N,01532.144,E,2.2,172.0,070513,,,D*66
$IIRSA,1,A,,V*66
$IIMWV,028.0,R,6.0,N,A*31
$IIMWV,033.5,T,5.1,N,A*3A
$IIVHW,,T,197.0,M,1.02,N,1.89,K*77
$IIVPW,0.85,N,0.44,M*5F
$IIVWR,028.0,R,6.0,N,3.1,M,11.1,K*76
$IIVWT,033.0,R,5.1,N,2.6,M,9.4,K*42
$IIRSA,1,A,,V*66
$IIGGA,092020,4351.487,N,01532.144,E,2,09,2,2,M,41,M,1,0000*70
$IIMWD,,T,230.0,M,5.1,N,2.6,M*6B
$IIVTG,173.0,T,,M,2.2,N,4.1,K*77
$IIRSA,0,A,,V*67
$IIBWC,092021,,,,,,T,,M,,N,*09
$IIDBT,102.3,f,31.19,M,17.05,F*18
$IIGLL,4351.487,N,01532.144,E,092021,A,D*51
$IIHDG,197.0,,,,*46
$IIHDM,197.0,M*2D
$IIRMC,092021,A,4351.487,N,01532.144,E,2.2,174.0,070513,,,D*64
$IIRSA,0,A,,V*67
$IIMWV,041.5,R,6.0,N,A*3B
$IIMWV,046.5,T,5.4,N,A*3D
$IIVHW,,T,197.0,M,0.73,N,1.35,K*77
$IIVPW,0.50,N,0.26,M*53
$IIVWR,041.5,R,6.0,N,3.1,M,11.1,K*7C
$IIVWT,046.5,R,5.4,N,2.8,M,10.0,K*72
$IIRSA,0,A,,V*67
$IIRSA,0,A,,V*67
$IIBWC,092023,,,,,,T,,M,,N,*0B
$IIDBT,104.0,f,31.71,M,17.33,F*16
$IIGLL,4351.486,N,01532.144,E,092023,A,D*52
$IIHDG,197.0,,,,*46
$IIHDM,197.5,M*28
$IIRMC,092023,A,4351.486,N,01532.144,E,2.2,176.0,070513,,,D*65
$IIRSA,2,A,,V*65
$IIMWV,044.0,R,5.9,N,A*31
$IIMWV,050.0,T,5.3,N,A*38
$IIVHW,,T,197.5,M,0.80,N,1.48,K*74
$IIVPW,0.51,N,0.26,M*52
$IIVWR,044.0,R,5.9,N,3.0,M,10.9,K*7E
$IIVWT,051.0,R,5.2,N,2.7,M,9.6,K*46
$IIRSA,2,A,,V*65
$IIRSA,2,A,,V*65
$IIGSA,,3,08,02,04,09,05,10,28,07,,,,,,2,*76
$IIGSV,2,1,24,08,78,214,44,07,68,051,45,10,67,181,45,05,46,303,48*65
$IIGSV,2,2,24,13,29,083,43,09,27,231,40,02,22,243,38,26,20,282,43*60
$IIMTW,40.0,C*17
$IIZDA,092025,07,05,2013,,*51
$IIRSA,1,A,,V*66
$IIGGA,092025,4351.484,N,01532.144,E,2,09,2,1,M,41,M,1,0000*75
$IIMWD,,T,241.0,M,6.0,N,3.1,M*69
$IIVTG,178.0,T,,M,2.2,N,4.1,K*7C
$IIBWC,092026,,,,,,T,,M,,N,*0E
$IIDBT,103.5,f,31.55,M,17.25,F*15
$IIGLL,4351.484,N,01532.144,E,092026,A,D*55
$IIHDG,197.0,,,,*46
$IIHDM,198.0,M*22
$IIRMC,092026,A,4351.484,N,01532.144,E,2.2,178.0,070513,,,D*6C
$IIRSA,0,A,,V*67
$IIMWV,037.5,R,6.5,N,A*3F
$IIMWV,041.0,T,6.0,N,A*38
$IIVHW,,T,198.0,M,0.56,N,1.04,K*7D
$IIVPW,0.42,N,0.22,M*54
$IIVWR,037.5,R,6.5,N,3.4,M,12.0,K*7F
$IIVWT,041.0,R,6.0,N,3.1,M,11.1,K*7F
$IIRSA,0,A,,V*67
$IIBWC,092027,,,,,,T,,M,,N,*0F
$IIDBT,103.5,f,31.55,M,17.25,F*15
$IIGLL,4351.483,N,01532.144,E,092027,A,D*53
$IIHDG,198.0,,,,*49
$IIHDM,198.0,M*22
$IIRMC,092027,A,4351.483,N,01532.144,E,2.2,179.0,070513,,,D*6B
$IIRSA,0,A,,V*67
$IIMWV,038.5,R,6.2,N,A*37
$IIMWV,043.5,T,5.5,N,A*39
$IIVHW,,T,198.0,M,0.80,N,1.48,K*7E
$IIVPW,0.53,N,0.27,M*51
$IIVWR,040.0,R,6.6,N,3.4,M,12.2,K*7B
$IIVWT,044.5,R,6.0,N,3.1,M,11.1,K*7F
$IIRSA,0,A,,V*67
$IIRSA,0,A,,V*67
$IIBWC,092029,,,,,,T,,M,,N,*01
$IIDBT,103.6,f,31.59,M,17.26,F*19
$IIGLL,4351.482,N,01532.144,E,092029,A,D*5C
$IIHDG,198.0,,,,*49
$IIHDM,198.0,M*22
$IIRMC,092029,A,4351.482,N,01532.144,E,2.1,180.0,070513,,,D*61
$IIRSA,0,A,,V*67
$IIMWV,041.0,R,6.8,N,A*36
$IIMWV,045.5,T,6.2,N,A*3B
$IIVHW,,T,198.0,M,0.77,N,1.43,K*7D
$IIVPW,0.54,N,0.28,M*59
$IIVWR,041.0,R,6.8,N,3.5,M,12.6,K*71
$IIVWT,044.5,R,6.3,N,3.2,M,11.7,K*79
$IIRSA,-2,A,,V*48
$IIGGA,092030,4351.481,N,01532.144,E,2,09,2,1,M,41,M,1,0000*74
$IIMWD,,T,249.0,M,6.6,N,3.4,M*62
$IIVTG,181.0,T,,M,2.1,N,3.9,K*76
$IIRSA,-6,A,,V*4C
$IIBWC,092031,,,,,,T,,M,,N,*08
$IIDBT,104.3,f,31.80,M,17.38,F*10
$IIGLL,4351.481,N,01532.143,E,092031,A,D*51
$IIHDG,198.0,,,,*49
$IIHDM,198.0,M*22
$IIRMC,092031,A,4351.481,N,01532.143,E,2.1,182.0,070513,,,D*6E
$IIRSA,-6,A,,V*4C
$IIMWV,041.0,R,7.0,N,A*3F
$IIMWV,044.0,T,6.6,N,A*3B
$IIVHW,,T,197.5,M,0.52,N,0.96,K*79
$IIVPW,0.37,N,0.19,M*5E
$IIVWR,041.0,R,7.0,N,3.6,M,13.0,K*7C
$IIVWT,044.5,R,6.5,N,3.4,M,12.0,K*7D
$IIRSA,-6,A,,V*4C
$IIRSA,-6,A,,V*4C
$IIBWC,092033,,,,,,T,,M,,N,*0A
$IIDBT,104.3,f,31.80,M,17.38,F*10
$IIGLL,4351.480,N,01532.143,E,092033,A,D*52
$IIHDG,196.0,,,,*47
$IIHDM,196.0,M*2C
$IIRMC,092033,A,4351.480,N,01532.143,E,2.1,183.0,070513,,,D*6C
$IIRSA,-6,A,,V*4C
$IIMWV,038.5,R,6.7,N,A*32
$IIMWV,041.5,T,6.3,N,A*3E
$IIVHW,,T,196.0,M,0.52,N,0.96,K*7D
$IIVPW,0.39,N,0.20,M*5A
$IIVWR,038.5,R,6.7,N,3.5,M,12.4,K*77
$IIVWT,042.5,R,6.2,N,3.2,M,11.5,K*7C
$IIRSA,-1,A,,V*4B
$IIRSA,2,A,,V*65
$IIGSA,,3,08,02,04,09,05,10,28,07,,,,,,2,*76
$IIGSV,2,1,24,08,78,214,45,07,68,051,46,10,67,181,45,05,46,303,49*66
$IIGSV,2,2,24,13,29,083,40,09,27,231,37,02,22,243,43,26,20,282,39*62
$IIMTW,40.0,C*17
$IIZDA,092035,07,05,2013,,*50
$IIGGA,092035,4351.479,N,01532.143,E,2,09,2,0,M,41,M,1,0000*70
$IIMWD,,T,239.0,M,6.1,N,3.1,M*67
$IIVTG,184.0,T,,M,2.1,N,3.9,K*73
$IIRSA,7,A,,V*60
$IIBWC,092036,,,,,,T,,M,,N,*0F
$IIDBT,104.2,f,31.77,M,17.36,F*17
$IIGLL,4351.478,N,01532.143,E,092036,A,D*50
$IIHDG,193.0,,,,*42
$IIHDM,193.0,M*29
$IIRMC,092036,A,4351.478,N,01532.143,E,2.1,184.0,070513,,,D*69
$IIRSA,11,A,,V*57
$IIMWV,052.0,R,6.7,N,A*3B
$IIMWV,056.5,T,6.3,N,A*38
$IIVHW,,T,193.0,M,0.61,N,1.13,K*74
$IIVPW,0.37,N,0.19,M*5E
$IIVWR,048.5,R,6.5,N,3.4,M,12.0,K*77
$IIVWT,052.5,R,6.1,N,3.1,M,11.3,K*7B
$IIRSA,13,A,,V*55
$IIBWC,092037,,,,,,T,,M,,N,*0E
$IIDBT,104.7,f,31.92,M,17.45,F*1D
$IIGLL,4351.478,N,01532.143,E,092037,A,D*51
$IIHDG,193.0,,,,*42
$IIHDM,193.0,M*29
$IIRMC,092037,A,4351.478,N,01532.143,E,2.1,183.0,070513,,,D*6F
$IIRSA,13,A,,V*55
$IIMWV,046.0,R,6.5,N,A*3C
$IIMWV,049.5,T,6.1,N,A*34
$IIVHW,,T,193.0,M,0.51,N,0.94,K*79
$IIVPW,0.30,N,0.15,M*55
$IIVWR,046.0,R,6.8,N,3.5,M,12.6,K*76
$IIVWT,049.0,R,6.4,N,3.3,M,11.9,K*79
$IIRSA,13,A,,V*55
$IIRSA,15,A,,V*53
$IIBWC,092039,,,,,,T,,M,,N,*00
$IIDBT,105.3,f,32.10,M,17.55,F*10
$IIGLL,4351.476,N,01532.143,E,092039,A,D*51
$IIHDG,192.5,,,,*46
$IIHDM,192.5,M*2D
$IIRMC,092039,A,4351.476,N,01532.143,E,2.0,182.0,070513,,,D*6F
$IIRSA,19,A,,V*5F
$IIMWV,050.0,R,7.0,N,A*3F
$IIMWV,055.0,T,6.5,N,A*38
$IIVHW,,T,192.5,M,0.72,N,1.33,K*70
$IIVPW,0.55,N,0.28,M*58
$IIVWR,036.0,R,6.5,N,3.4,M,12.0,K*7B
$IIVWT,040.5,R,5.9,N,3.0,M,10.9,K*79
$IIRSA,22,A,,V*57
$IIGGA,092040,4351.476,N,01532.143,E,2,09,2,0,M,41,M,1,0000*7D
$IIMWD,,T,232.5,M,5.9,N,3.0,M*63
$IIVTG,181.0,T,,M,2.0,N,3.7,K*79
$IIRSA,24,A,,V*51
$IIBWC,092041,,,,,,T,,M,,N,*0F
$IIDBT,104.6,f,31.89,M,17.43,F*10
$IIGLL,4351.475,N,01532.143,E,092041,A,D*5D
$IIHDG,192.0,,,,*43
$IIHDM,192.0,M*28
$IIRMC,092041,A,4351.475,N,01532.143,E,2.0,180.0,070513,,,D*61
$IIRSA,24,A,,V*51
$IIMWV,040.5,R,6.3,N,A*39
$IIMWV,045.0,T,5.8,N,A*37
$IIVHW,,T,193.0,M,0.67,N,1.24,K*76
$IIVPW,0.47,N,0.24,M*57
$IIVWR,041.0,R,6.7,N,3.5,M,12.4,K*7C
$IIVWT,045.0,R,6.2,N,3.2,M,11.5,K*7E
$IIRSA,21,A,,V*54
$IIRSA,17,A,,V*51
$IIRSA,13,A,,V*55
$IIBWC,092043,,,,,,T,,M,,N,*0D
$IIDBT,105.0,f,32.01,M,17.50,F*16
$IIGLL,4351.474,N,01532.143,E,092043,A,D*5E
$IIHDG,194.5,,,,*40
$IIHDM,194.5,M*2B
$IIRMC,092043,A,4351.474,N,01532.143,E,2.0,177.0,070513,,,D*6A
$IIRSA,6,A,,V*61
$IIMWV,041.5,R,7.3,N,A*39
$IIMWV,045.5,T,6.7,N,A*3E
$IIVHW,,T,195.0,M,0.72,N,1.33,K*72
$IIVPW,0.53,N,0.27,M*51
$IIVWR,038.5,R,7.2,N,3.7,M,13.3,K*77
$IIVWT,042.5,R,6.7,N,3.5,M,12.4,K*7C
$IIRSA,4,A,,V*63
$IIGSA,,3,08,02,04,09,05,10,28,07,,,,,,2,*76
$IIGSV,2,1,24,08,78,214,45,07,68,051,44,10,67,181,46,05,46,303,47*69
$IIGSV,2,2,24,13,29,083,41,09,27,231,38,02,22,243,39,26,20,282,42*6D
$IIMTW,40.0,C*17
$IIZDA,092045,07,05,2013,,*57
$IIRSA,2,A,,V*65
$IIGGA,092045,4351.473,N,01532.143,E,2,09,2,0,M,41,M,1,0000*7D
$IIMWD,,T,241.0,M,6.7,N,3.5,M*6A
$IIVTG,175.0,T,,M,2.0,N,3.7,K*72
$IIBWC,092046,,,,,,T,,M,,N,*08
$IIDBT,104.8,f,31.95,M,17.46,F*16
$IIGLL,4351.473,N,01532.143,E,092046,A,D*5C
$IIHDG,195.5,,,,*41
$IIHDM,195.5,M*2A
$IIRMC,092046,A,4351.473,N,01532.143,E,2.0,175.0,070513,,,D*6A
$IIRSA,0,A,,V*67
$IIMWV,047.5,R,7.2,N,A*3E
$IIMWV,051.5,T,6.7,N,A*3B
$IIVHW,,T,195.0,M,0.68,N,1.26,K*7D
$IIVPW,0.42,N,0.22,M*54
$IIVWR,047.5,R,7.2,N,3.7,M,13.3,K*7F
$IIVWT,052.0,R,6.7,N,3.5,M,12.4,K*78
$IIRSA,5,A,,V*62
$IIBWC,092047,,,,,,T,,M,,N,*09
$IIDBT,104.9,f,31.98,M,17.48,F*14
$IIGLL,4351.472,N,01532.143,E,092047,A,D*5C
$IIHDG,195.0,,,,*44
$IIHDM,195.0,M*2F
$IIRMC,092047,A,4351.472,N,01532.143,E,2.0,175.0,070513,,,D*6A
$IIRSA,5,A,,V*62
$IIMWV,041.0,R,7.2,N,A*3D
$IIMWV,045.0,T,6.6,N,A*3A
$IIVHW,,T,195.0,M,0.62,N,1.15,K*77
$IIVPW,0.44,N,0.23,M*53
$IIVWR,041.0,R,7.2,N,3.7,M,13.3,K*7C
$IIVWT,044.5,R,6.7,N,3.5,M,12.4,K*7A
$IIRSA,5,A,,V*62
$IIBWC,092049,,,,,,T,,M,,N,*07
$IIDBT,105.6,f,32.20,M,17.60,F*10
$IIGLL,4351.471,N,01532.143,E,092049,A,D*51
$IIHDG,194.5,,,,*40
$IIHDM,194.5,M*2B
$IIRMC,092049,A,4351.471,N,01532.143,E,2.0,176.0,070513,,,D*64
$IIRSA,5,A,,V*62
$IIMWV,040.0,R,7.4,N,A*3A
$IIMWV,043.5,T,6.9,N,A*36
$IIVHW,,T,194.5,M,0.62,N,1.15,K*73
$IIVPW,0.45,N,0.23,M*52
$IIVWR,040.0,R,7.4,N,3.8,M,13.7,K*70
$IIVWT,043.5,R,6.9,N,3.6,M,12.8,K*7C
$IIHSC,,T,000.0,M*6F
$IIRSA,5,A,,V*62
$IIGGA,092050,4351.470,N,01532.143,E,2,09,2,0,M,41,M,1,0000*7A
$IIHSC,,T,000.0,M*6F
$IIMWD,,T,237.5,M,6.9,N,3.6,M*63
$IIVTG,176.0,T,,M,2.0,N,3.7,K*71
$IIRSA,5,A,,V*62
$IIBWC,092051,,,,,,T,,M,,N,*0E
$IIDBT,105.7,f,32.23,M,17.61,F*13
$IIGLL,4351.469,N,01532.143,E,092051,A,D*51
$IIHDG,194.0,,,,*45
$IIHDM,194.5,M*2B
$IIRMC,092051,A,4351.469,N,01532.143,E,2.0,176.0,070513,,,D*64
$IIRSA,5,A,,V*62
$IIMWV,041.5,R,7.4,N,A*3E
$IIMWV,045.5,T,6.8,N,A*31
$IIVHW,,T,194.5,M,0.75,N,1.39,K*7B
$IIVPW,0.53,N,0.27,M*51
$IIVWR,041.5,R,7.4,N,3.8,M,13.7,K*74
$IIVWT,045.0,R,6.9,N,3.6,M,12.8,K*7F
$IIRSA,5,A,,V*62
$IIRSA,5,A,,V*62
$IIBWC,092053,,,,,,T,,M,,N,*0C
$IIDBT,105.0,f,32.01,M,17.50,F*16
$IIGLL,4351.468,N,01532.143,E,092053,A,D*52
$IIHDG,194.0,,,,*45
$IIHDM,194.0,M*2E
$IIRMC,092053,A,4351.468,N,01532.143,E,2.0,176.0,070513,,,D*67
$IIRSA,5,A,,V*62
$IIMWV,042.0,R,7.5,N,A*39
$IIMWV,045.5,T,7.0,N,A*38
$IIVHW,,T,194.0,M,0.66,N,1.22,K*76
$IIVPW,0.46,N,0.24,M*56
$IIVWR,042.0,R,7.5,N,3.9,M,13.9,K*7C
$IIVWT,045.5,R,7.0,N,3.6,M,13.0,K*7B
$IIRSA,5,A,,V*62
$IIRSA,5,A,,V*62
$IIGSA,,3,08,02,04,09,05,10,28,07,,,,,,2,*76
$IIGSV,2,1,24,08,78,214,45,07,68,051,47,10,66,181,46,05,46,303,47*6B
$IIGSV,2,2,24,13,29,083,40,09,27,231,40,02,22,243,38,26,20,283,42*63
$IIMTW,40.0,C*17
$IIZDA,092055,07,05,2013,,*56
$IIRSA,5,A,,V*62
$IIGGA,092055,4351.467,N,01532.143,E,2,09,2,1,M,41,M,1,0000*78
$IIMWD,,T,241.0,M,7.2,N,3.7,M*6C
$IIVTG,177.0,T,,M,2.0,N,3.7,K*70
$IIBWC,092056,,,,,,T,,M,,N,*09
$IIDBT,105.5,f,32.16,M,17.58,F*1D
$IIGLL,4351.467,N,01532.143,E,092056,A,D*58
$IIHDG,193.0,,,,*42
$IIHDM,193.0,M*29
$IIRMC,092056,A,4351.467,N,01532.143,E,2.0,177.0,070513,,,D*6C
$IIRSA,5,A,,V*62
$IIMWV,044.5,R,7.9,N,A*36
$IIMWV,049.0,T,7.3,N,A*32
$IIVHW,,T,193.5,M,0.80,N,1.48,K*70
$IIVPW,0.52,N,0.27,M*50
$IIVWR,044.5,R,7.9,N,4.1,M,14.6,K*74
$IIVWT,048.5,R,7.3,N,3.8,M,13.5,K*7E
$IIRSA,5,A,,V*62
$IIBWC,092057,,,,,,T,,M,,N,*08
$IIDBT,105.5,f,32.16,M,17.58,F*1D
$IIGLL,4351.466,N,01532.143,E,092057,A,D*58
$IIHDG,193.5,,,,*47
$IIHDM,193.5,M*2C
$IIRMC,092057,A,4351.466,N,01532.143,E,2.1,177.0,070513,,,D*6D
$IIRSA,5,A,,V*62
$IIMWV,040.5,R,7.4,N,A*3F
$IIMWV,045.0,T,6.8,N,A*34
$IIVHW,,T,193.5,M,0.77,N,1.43,K*73
$IIVPW,0.54,N,0.28,M*59
$IIVWR,040.5,R,7.4,N,3.8,M,13.7,K*75
$IIVWT,043.0,R,6.8,N,3.5,M,12.6,K*75
$IIRSA,18,A,,V*5E
$IIRSA,22,A,,V*57
$IIRSA,25,A,,V*50
$IIRSA,29,A,,V*5C
$IIRSA,33,A,,V*57
$IIBWC,092059,,,,,,T,,M,,N,*06
$IIDBT,104.9,f,31.98,M,17.48,F*14
$IIGLL,4351.465,N,01532.143,E,092059,A,D*55
$IIHDG,192.5,,,,*46
$IIHDM,192.5,M*2D
$IIRMC,092059,A,4351.465,N,01532.143,E,2.1,177.0,070513,,,D*60
$IIRSA,44,A,,V*57
$IIMWV,041.0,R,7.9,N,A*36
$IIMWV,044.0,T,7.4,N,A*38
$IIVHW,,T,192.5,M,0.59,N,1.09,K*70
$IIVPW,0.42,N,0.22,M*54
$IIVWR,041.0,R,7.9,N,4.1,M,14.6,K*74
$IIVWT,045.5,R,7.2,N,3.7,M,13.3,K*7B
$IIRSA,46,A,,V*55
$IIGGA,092100,4351.464,N,01532.143,E,2,09,2,1,M,41,M,1,0000*7A
$IIMWD,,T,240.0,M,7.1,N,3.7,M*6E
$IIVLW,16801.5,N,46.71,N*42
$IIVTG,176.0,T,,M,2.1,N,3.9,K*7E
$IIRSA,46,A,,V*55
$IIBWC,092101,,,,,,T,,M,,N,*0A
$IIDBT,105.8,f,32.26,M,17.63,F*1B
$IIGLL,4351.464,N,01532.143,E,092100,A,D*59
$IIHDG,195.0,,,,*44
$IIHDM,195.0,M*2F
$IIRMC,092100,A,4351.464,N,01532.143,E,2.1,175.0,070513,,,D*6E
$IIRSA,46,A,,V*55
$IIMWV,044.5,R,7.9,N,A*36
$IIMWV,048.0,T,7.4,N,A*34
$IIVHW,,T,196.5,M,0.70,N,1.30,K*75
$IIVPW,0.47,N,0.24,M*57
$IIVWR,044.5,R,7.9,N,4.1,M,14.6,K*74
$IIVWT,048.0,R,7.4,N,3.8,M,13.7,K*7E
$IIRSA,46,A,,V*55
$IIRSA,46,A,,V*55
$IIBWC,092102,,,,,,T,,M,,N,*09
$IIDBT,105.0,f,32.01,M,17.50,F*16
$IIGLL,4351.463,N,01532.143,E,092102,A,D*5C
$IIHDG,200.0,,,,*4B
$IIHDM,202.0,M*22
$IIRMC,092102,A,4351.463,N,01532.143,E,2.1,171.0,070513,,,D*6F
$IIRSA,46,A,,V*55
$IIMWV,037.0,R,8.0,N,A*31
$IIMWV,040.5,T,7.3,N,A*3E
$IIVHW,,T,202.0,M,0.78,N,1.44,K*75
$IIVPW,0.59,N,0.30,M*5D
$IIVWR,037.0,R,8.0,N,4.1,M,14.8,K*7D
$IIVWT,041.0,R,7.3,N,3.8,M,13.5,K*72
$IIRSA,46,A,,V*55
$IIRSA,46,A,,V*55
$IIGSA,,3,08,02,04,09,05,10,28,07,,,,,,2,*76
$IIGSV,2,1,24,08,78,214,46,07,68,051,47,10,66,181,46,05,46,303,44*6B
$IIGSV,2,2,24,13,29,083,43,09,27,231,44,02,22,243,36,26,20,283,42*6A
$IIMTW,40.0,C*17
$IIZDA,092104,07,05,2013,,*53
$IIGGA,092104,4351.461,N,01532.144,E,2,09,2,1,M,41,M,1,0000*7C
$IIMWD,,T,242.5,M,7.3,N,3.8,M*64
$IIVLW,16801.5,N,46.71,N*42
$IIVTG,167.0,T,,M,2.1,N,3.9,K*7E
$IIRSA,43,A,,V*50
$IIBWC,092105,,,,,,T,,M,,N,*0E
$IIDBT,105.8,f,32.26,M,17.63,F*1B
$IIGLL,4351.461,N,01532.144,E,092105,A,D*5E
$IIHDG,214.0,,,,*4E
$IIHDM,214.0,M*25
$IIRMC,092105,A,4351.461,N,01532.144,E,2.1,167.0,070513,,,D*6A
$IIRSA,41,A,,V*52
$IIMWV,024.0,R,7.9,N,A*35
$IIMWV,026.0,T,7.3,N,A*3B
$IIVHW,,T,218.0,M,0.62,N,1.15,K*71
$IIVPW,0.56,N,0.29,M*5A
$IIVWR,018.5,R,7.9,N,4.1,M,14.6,K*7D
$IIVWT,019.5,R,7.5,N,3.9,M,13.9,K*71
$IIRSA,38,A,,V*5C
$IIBWC,092106,,,,,,T,,M,,N,*0D
$IIDBT,105.4,f,32.13,M,17.56,F*17
$IIGLL,4351.460,N,01532.144,E,092106,A,D*5C
$IIHDG,221.0,,,,*48
$IIHDM,221.0,M*23
$IIRMC,092106,A,4351.460,N,01532.144,E,2.1,167.0,070513,,,D*68
$IIRSA,38,A,,V*5C
$IIMWV,016.0,R,7.9,N,A*34
$IIMWV,017.0,T,7.4,N,A*3E
$IIVHW,,T,224.0,M,0.56,N,1.04,K*79
$IIVPW,0.54,N,0.28,M*59
$IIVWR,016.0,R,7.8,N,4.0,M,14.4,K*74
$IIVWT,017.0,R,7.2,N,3.7,M,13.3,K*79
$IIRSA,35,A,,V*51
$IIRSA,33,A,,V*57
$IIBWC,092108,,,,,,T,,M,,N,*03
$IIDBT,105.5,f,32.16,M,17.58,F*1D
$IIGLL,4351.459,N,01532.144,E,092108,A,D*58
$IIHDG,229.0,,,,*40
$IIHDM,229.0,M*2B
$IIRMC,092108,A,4351.459,N,01532.144,E,2.1,169.0,070513,,,D*62
$IIRSA,28,A,,V*5D
$IIMWV,010.0,R,7.5,N,A*3E
$IIMWV,010.5,T,6.9,N,A*30
$IIVHW,,T,232.5,M,0.52,N,0.96,K*75
$IIVPW,0.51,N,0.26,M*52
$IIVWR,010.0,R,7.5,N,3.9,M,13.9,K*7B
$IIVWT,012.0,R,7.0,N,3.6,M,13.0,K*7C
$IIRSA,26,A,,V*53
$IIGGA,092109,4351.459,N,01532.144,E,2,08,1,1,M,41,M,1,0000*78
$IIMWD,,T,247.0,M,7.1,N,3.7,M*69
$IIVLW,16801.5,N,46.71,N*42
$IIVTG,170.0,T,,M,2.0,N,3.7,K*77
$IIRSA,22,A,,V*57
$IIBWC,092111,,,,,,T,,M,,N,*0B
$IIDBT,106.1,f,32.35,M,17.68,F*18
$IIGLL,4351.458,N,01532.144,E,092111,A,D*51
$IIHDG,239.5,,,,*44
$IIHDM,239.5,M*2F
$IIRMC,092111,A,4351.458,N,01532.144,E,2.0,172.0,070513,,,D*60
$IIRSA,22,A,,V*57
$IIMWV,007.5,R,7.2,N,A*3A
$IIMWV,008.0,T,6.8,N,A*3D
$IIVHW,,T,241.0,M,0.40,N,0.74,K*7B
$IIVPW,0.40,N,0.21,M*55
$IIVWR,007.5,R,7.2,N,3.7,M,13.3,K*7B
$IIVWT,004.0,R,6.7,N,3.5,M,12.4,K*7B
$IIRSA,21,A,,V*54
$IIBWC,092113,,,,,,T,,M,,N,*09
$IIDBT,106.6,f,32.50,M,17.76,F*13
$IIGLL,4351.458,N,01532.143,E,092113,A,D*54
$IIHDG,246.0,,,,*49
$IIHDM,246.0,M*22
$IIRMC,092113,A,4351.458,N,01532.143,E,1.8,178.0,070513,,,D*64
$IIRSA,22,A,,V*57
$IIMWV,352.5,R,7.1,N,A*3A
$IIMWV,352.0,T,6.6,N,A*3F
$IIVHW,,T,247.0,M,0.45,N,0.83,K*70
$IIVPW,0.45,N,0.23,M*52
$IIVWR,007.5,L,7.1,N,3.7,M,13.1,K*64
$IIVWT,007.5,L,6.6,N,3.4,M,12.2,K*65
$IIRSA,21,A,,V*54
$IIRSA,21,A,,V*54
$IIRSA,17,A,,V*51
$IIGSA,,3,08,02,04,09,05,10,07,26,,,,,,2,*78
$IIGSV,2,1,24,08,78,214,45,07,68,051,46,10,66,181,39,05,46,303,48*6D
$IIGSV,2,2,24,13,29,083,45,09,27,231,42,02,22,243,38,26,20,283,39*68
$IIMTW,40.0,C*17
$IIZDA,092115,07,05,2013,,*53
$IIRSA,15,A,,V*53
$IIGGA,092115,4351.457,N,01532.143,E,2,08,2,1,M,41,M,1,0000*7F
$IIMWD,,T,242.5,M,6.6,N,3.4,M*6C
$IIVLW,16801.5,N,46.71,N*42
$IIVTG,188.0,T,,M,1.6,N,3.0,K*72
$IIRSA,11,A,,V*57
$IIBWC,092116,,,,,,T,,M,,N,*0C
$IIDBT,106.0,f,32.32,M,17.66,F*10
$IIGLL,4351.457,N,01532.142,E,092116,A,D*5F
$IIHDG,256.5,,,,*4D
$IIHDM,256.5,M*26
$IIRMC,092116,A,4351.457,N,01532.142,E,1.6,188.0,070513,,,D*6E
$IIRSA,9,A,,V*6E
$IIMWV,344.5,R,6.8,N,A*35
$IIMWV,344.0,T,6.4,N,A*3A
$IIVHW,,T,257.0,M,0.33,N,0.61,K*7C
$IIVPW,0.32,N,0.16,M*54
$IIVWR,015.5,L,6.8,N,3.5,M,12.6,K*6B
$IIVWT,015.5,L,6.8,N,3.5,M,12.6,K*6D
$IIRSA,8,A,,V*6F
$IIBWC,092117,,,,,,T,,M,,N,*0D
$IIDBT,108.0,f,32.93,M,18.00,F*1A
$IIGLL,4351.457,N,01532.142,E,092117,A,D*5E
$IIHDG,259.0,,,,*47
$IIHDM,259.0,M*2C
$IIRMC,092117,A,4351.457,N,01532.142,E,1.5,191.0,070513,,,D*64
$IIRSA,4,A,,V*63
$IIMWV,342.5,R,7.2,N,A*38
$IIMWV,342.5,T,7.2,N,A*3E
$IIVHW,,T,260.0,M,0.00,N,0.00,K*7F
$IIVPW,0.00,N,0.00,M*52
$IIVWR,017.5,L,7.2,N,3.7,M,13.3,K*64
$IIVWT,017.5,L,7.2,N,3.7,M,13.3,K*62
$IIRSA,3,A,,V*64
$IIBWC,092119,,,,,,T,,M,,N,*03
$IIDBT,106.5,f,32.47,M,17.75,F*15
$IIGLL,4351.456,N,01532.141,E,092119,A,D*52
$IIHDG,262.0,,,,*4F
$IIHDM,262.0,M*24
$IIRMC,092119,A,4351.456,N,01532.141,E,1.4,200.0,070513,,,D*62
$IIRSA,-3,A,,V*49
$IIMWV,343.0,R,7.0,N,A*3E
$IIMWV,344.0,T,6.6,N,A*38
$IIVHW,,T,263.5,M,0.04,N,0.07,K*7A
$IIVPW,0.04,N,0.02,M*54
$IIVWR,016.0,L,6.7,N,3.5,M,12.4,K*60
$IIVWT,016.0,L,6.6,N,3.4,M,12.2,K*60
$IIRSA,-5,A,,V*4F
$IIGGA,092120,4351.456,N,01532.141,E,2,09,2,1,M,41,M,1,0000*7B
$IIMWD,,T,248.5,M,6.4,N,3.3,M*63
$IIVLW,16801.5,N,46.71,N*42
$IIVTG,204.0,T,,M,1.3,N,2.4,K*75
$IIRSA,-10,A,,V*7B
$IIBWC,092121,,,,,,T,,M,,N,*08
$IIDBT,107.4,f,32.74,M,17.90,F*1E
$IIGLL,4351.456,N,01532.140,E,092121,A,D*58
$IIHDG,266.0,,,,*4B
$IIHDM,266.0,M*20
$IIRMC,092121,A,4351.456,N,01532.140,E,1.3,209.0,070513,,,D*66
$IIRSA,-15,A,,V*7E
$IIMWV,336.5,R,6.6,N,A*3E
$IIMWV,333.5,T,5.9,N,A*31
$IIVHW,,T,266.5,M,0.77,N,1.43,K*7A
$IIVPW,0.69,N,0.36,M*58
$IIVWR,023.5,L,6.6,N,3.4,M,12.2,K*65
$IIVWT,025.5,L,6.1,N,3.1,M,11.3,K*65
$IIRSA,-15,A,,V*7E
$IIRSA,-15,A,,V*7E
$IIBWC,092123,,,,,,T,,M,,N,*0A
$IIDBT,106.6,f,32.50,M,17.76,F*13
$IIGLL,4351.456,N,01532.139,E,092123,A,D*54
$IIHDG,269.0,,,,*44
$IIHDM,269.0,M*2F
$IIRMC,092123,A,4351.456,N,01532.139,E,1.2,219.0,070513,,,D*6A
$IIRSA,-16,A,,V*7D
$IIMWV,337.5,R,6.5,N,A*3C
$IIMWV,335.5,T,6.0,N,A*3D
$IIVHW,,T,269.5,M,0.47,N,0.87,K*7F
$IIVPW,0.43,N,0.22,M*55
$IIVWR,022.5,L,6.5,N,3.4,M,12.0,K*65
$IIVWT,024.5,L,6.0,N,3.1,M,11.1,K*67
$IIRSA,-16,A,,V*7D
$IIRSA,-16,A,,V*7D
$IIGSA,,3,08,02,04,09,05,10,07,26,,,,,,2,*78
$IIGSV,2,1,24,08,78,214,42,07,67,051,44,10,66,181,43,05,46,302,39*6D
$IIGSV,2,2,24,13,29,083,49,09,27,231,35,02,21,243,40,26,21,283,38*68
$IIMTW,40.0,C*17
$IIZDA,092125,07,05,2013,,*50
$IIGGA,092125,4351.455,N,01532.138,E,2,09,2,2,M,41,M,1,0000*70
$IIMWD,,T,247.5,M,6.7,N,3.5,M*69
$IIVLW,16801.5,N,46.71,N*42
$IIVTG,233.0,T,,M,1.2,N,2.2,K*76
$IIRSA,-16,A,,V*7D
$IIBWC,092126,,,,,,T,,M,,N,*0F
$IIDBT,106.9,f,32.59,M,17.81,F*1D
$IIGLL,4351.455,N,01532.137,E,092126,A,D*5C
$IIHDG,273.0,,,,*4F
$IIHDM,273.0,M*24
$IIRMC,092126,A,4351.455,N,01532.137,E,1.2,233.0,070513,,,D*6A
$IIRSA,-19,A,,V*72
$IIMWV,337.0,R,6.9,N,A*35
$IIMWV,337.0,T,6.9,N,A*33
$IIVHW,,T,274.0,M,0.00,N,0.00,K*7A
$IIVPW,0.00,N,0.00,M*52
$IIVWR,023.0,L,6.9,N,3.6,M,12.8,K*67
$IIVWT,023.0,L,6.9,N,3.6,M,12.8,K*61
$IIRSA,-19,A,,V*72
$IIBWC,092127,,,,,,T,,M,,N,*0E
$IIDBT,106.3,f,32.41,M,17.71,F*11
$IIGLL,4351.455,N,01532.137,E,092127,A,D*5D
$IIHDG,275.0,,,,*49
$IIHDM,276.0,M*21
$IIRMC,092127,A,4351.455,N,01532.137,E,1.1,238.0,070513,,,D*63
$IIRSA,-22,A,,V*7A
$IIMWV,333.5,R,7.2,N,A*3E
$IIMWV,333.5,T,7.2,N,A*38
$IIVHW,,T,276.5,M,0.00,N,0.00,K*7D
$IIVPW,0.00,N,0.00,M*52
$IIVWR,026.5,L,7.2,N,3.7,M,13.3,K*66
$IIVWT,028.5,L,7.2,N,3.7,M,13.3,K*6E
$IIRSA,-31,A,,V*78
$IIRSA,-34,A,,V*7D
$IIBWC,092129,,,,,,T,,M,,N,*00
$IIDBT,107.3,f,32.71,M,17.88,F*15
$IIGLL,4351.455,N,01532.136,E,092129,A,D*52
$IIHDG,278.0,,,,*44
$IIHDM,278.0,M*2F
$IIRMC,092129,A,4351.455,N,01532.136,E,1.2,247.0,070513,,,D*67
$IIRSA,-35,A,,V*7C
$IIMWV,333.0,R,7.1,N,A*38
$IIMWV,333.0,T,7.1,N,A*3E
$IIVHW,,T,278.0,M,0.00,N,0.00,K*76
$IIVPW,0.00,N,0.00,M*52
$IIVWR,027.0,L,7.1,N,3.7,M,13.1,K*63
$IIVWT,027.0,L,7.1,N,3.7,M,13.1,K*65
$IIRSA,-34,A,,V*7D
$IIGGA,092130,4351.455,N,01532.135,E,2,08,2,2,M,41,M,1,0000*78
$IIMWD,,T,253.0,M,7.1,N,3.7,M*6C
$IIVLW,16801.5,N,46.71,N*42
$IIVTG,252.0,T,,M,1.2,N,2.2,K*71
$IIRSA,-35,A,,V*7C
$IIBWC,092131,,,,,,T,,M,,N,*09
$IIDBT,107.8,f,32.87,M,17.96,F*18
$IIGLL,4351.456,N,01532.134,E,092131,A,D*5A
$IIHDG,280.5,,,,*46
$IIHDM,280.5,M*2D
$IIRMC,092131,A,4351.456,N,01532.134,E,1.2,258.0,070513,,,D*61
$IIRSA,-35,A,,V*7C
$IIMWV,334.5,R,7.0,N,A*3B
$IIMWV,334.5,T,7.0,N,A*3D
$IIVHW,,T,280.0,M,0.00,N,0.00,K*71
$IIVPW,0.00,N,0.00,M*52
$IIVWR,025.5,L,7.0,N,3.6,M,13.0,K*65
$IIVWT,025.5,L,7.0,N,3.6,M,13.0,K*63
$IIRSA,-35,A,,V*7C
$IIBWC,092133,,,,,,T,,M,,N,*0B
$IIDBT,107.3,f,32.71,M,17.88,F*15
$IIGLL,4351.456,N,01532.133,E,092133,A,D*5F
$IIHDG,280.5,,,,*46
$IIHDM,280.5,M*2D
$IIRMC,092133,A,4351.456,N,01532.133,E,1.3,266.0,070513,,,D*68
$IIRSA,-33,A,,V*7A
$IIMWV,335.0,R,7.2,N,A*3D
$IIMWV,335.0,T,7.2,N,A*3B
$IIVHW,,T,280.0,M,0.00,N,0.00,K*71
$IIVPW,0.00,N,0.00,M*52
$IIVWR,025.0,L,7.2,N,3.7,M,13.3,K*60
$IIVWT,025.0,L,7.2,N,3.7,M,13.3,K*66
$IIRSA,-33,A,,V*7A
$IIGSA,,3,08,02,09,05,10,28,07,26,,,,,,2,*76
$IIGSV,2,1,24,08,78,214,42,07,67,051,45,10,66,181,42,05,46,302,45*66
$IIGSV,2,2,24,13,29,083,45,09,27,231,37,02,21,243,41,26,21,283,41*69
$IIMTW,40.0,C*17
$IIZDA,092135,07,05,2013,,*51
$IIRSA,-33,A,,V*7A
$IIGGA,092135,4351.456,N,01532.131,E,2,08,2,1,M,41,M,1,0000*79
$IIMWD,,T,255.5,M,6.7,N,3.5,M*6A
$IIVLW,16801.5,N,46.71,N*42
$IIVTG,275.0,T,,M,1.5,N,2.8,K*79
$IIBWC,092136,,,,,,T,,M,,N,*0E
$IIDBT,109.0,f,33.23,M,18.16,F*16
$IIGLL,4351.457,N,01532.130,E,092136,A,D*58
$IIHDG,280.0,,,,*43
$IIHDM,280.0,M*28
$IIRMC,092136,A,4351.457,N,01532.130,E,1.6,275.0,070513,,,D*68
$IIRSA,-33,A,,V*7A
$IIMWV,334.0,R,7.0,N,A*3E
$IIMWV,334.0,T,7.0,N,A*38
$IIVHW,,T,280.0,M,0.00,N,0.00,K*71
$IIVPW,0.00,N,0.00,M*52
$IIVWR,026.0,L,7.0,N,3.6,M,13.0,K*63
$IIVWT,022.5,L,6.9,N,3.6,M,12.8,K*65
$IIRSA,-32,A,,V*7B
$IIBWC,092137,,,,,,T,,M,,N,*0F
$IIDBT,107.9,f,32.90,M,17.98,F*11
$IIGLL,4351.457,N,01532.130,E,092137,A,D*59
$IIHDG,278.0,,,,*44
$IIHDM,278.0,M*2F
$IIRMC,092137,A,4351.457,N,01532.130,E,1.6,276.0,070513,,,D*6A
$IIRSA,-32,A,,V*7B
$IIMWV,337.5,R,6.9,N,A*30
$IIMWV,337.5,T,6.9,N,A*36
$IIVHW,,T,278.0,M,0.00,N,0.00,K*76
$IIVPW,0.00,N,0.00,M*52
$IIVWR,019.5,L,6.9,N,3.6,M,12.8,K*6B
$IIVWT,019.5,L,6.9,N,3.6,M,12.8,K*6D
$IIRSA,-32,A,,V*7B
$IIBWC,092139,,,,,,T,,M,,N,*01
$IIDBT,107.8,f,32.87,M,17.96,F*18
$IIGLL,4351.457,N,01532.128,E,092139,A,D*5E
$IIHDG,277.0,,,,*4B
$IIHDM,277.0,M*20
$IIRMC,092139,A,4351.457,N,01532.128,E,1.8,279.0,070513,,,D*6C
$IIRSA,-24,A,,V*7C
$IIMWV,342.5,R,6.9,N,A*32
$IIMWV,342.5,T,6.9,N,A*34
$IIVHW,,T,276.0,M,0.00,N,0.00,K*78
$IIVPW,0.00,N,0.00,M*52
$IIVWR,017.5,L,6.9,N,3.6,M,12.8,K*65
$IIVWT,017.5,L,6.9,N,3.6,M,12.8,K*63
$IIRSA,-20,A,,V*78
$IIGGA,092140,4351.457,N,01532.127,E,2,08,2,1,M,41,M,1,0000*7D
$IIMWD,,T,242.5,M,6.3,N,3.2,M*6F
$IIVLW,16801.5,N,46.71,N*42
$IIVTG,281.0,T,,M,2.1,N,3.9,K*75
$IIRSA,-13,A,,V*78
$IIBWC,092141,,,,,,T,,M,,N,*0E
$IIDBT,108.1,f,32.96,M,18.01,F*1F
$IIGLL,4351.458,N,01532.126,E,092141,A,D*50
$IIHDG,274.0,,,,*48
$IIHDM,274.0,M*23
$IIRMC,092141,A,4351.458,N,01532.126,E,2.1,281.0,070513,,,D*6F
$IIRSA,-7,A,,V*4D
$IIMWV,336.0,R,7.3,N,A*3F
$IIMWV,333.5,T,6.5,N,A*3E
$IIVHW,,T,274.0,M,0.77,N,1.43,K*7C
$IIVPW,0.69,N,0.36,M*58
$IIVWR,024.0,L,7.3,N,3.8,M,13.5,K*69
$IIVWT,024.0,L,6.5,N,3.4,M,12.0,K*60
$IIRSA,-4,A,,V*4E
$IIRSA,-4,A,,V*4E
$IIBWC,092143,,,,,,T,,M,,N,*0C
$IIDBT,108.7,f,33.14,M,18.11,F*13
$IIGLL,4351.458,N,01532.124,E,092143,A,D*50
$IIHDG,274.0,,,,*48
$IIHDM,274.5,M*26
$IIRMC,092143,A,4351.458,N,01532.124,E,2.1,280.0,070513,,,D*6E
$IIRSA,-4,A,,V*4E
$IIMWV,337.0,R,7.5,N,A*38
$IIMWV,334.0,T,6.6,N,A*3F
$IIVHW,,T,274.5,M,0.91,N,1.69,K*79
$IIVPW,0.82,N,0.42,M*5E
$IIVWR,023.0,L,7.5,N,3.9,M,13.9,K*65
$IIVWT,026.5,L,6.7,N,3.5,M,12.4,K*60
$IIRSA,-5,A,,V*4F
$IIRSA,-6,A,,V*4C
$IIGSA,,3,08,02,09,05,10,28,07,26,,,,,,2,*76
$IIGSV,2,1,24,08,78,214,43,07,67,051,44,10,66,181,46,05,46,302,46*61
$IIGSV,2,2,24,13,29,083,48,09,27,231,36,02,21,243,36,26,21,283,38*6B
$IIMTW,40.0,C*17
$IIZDA,092145,07,05,2013,,*56
$IIRSA,-6,A,,V*4C
$IIGGA,092145,4351.458,N,01532.122,E,2,08,2,2,M,41,M,7,0000*77
$IIMWD,,T,251.5,M,6.9,N,3.6,M*63
$IIVTG,277.0,T,,M,2.2,N,4.1,K*70
$IIBWC,092146,,,,,,T,,M,,N,*09
$IIDBT,108.5,f,33.08,M,18.08,F*14
